"","agency_cd","site_no","station_nm","site_tp_cd","dec_lat_va","dec_long_va","colocated","queryTime"
"1","USGS","11460170","PINE C A BOLINAS CA","ST",37.9185367,-122.6930404,FALSE,2021-08-16 14:54:28
"2","USGS","11460158","TABLE ROCK C A STINSON BCH CA","ST",37.89853719,-122.6374815,FALSE,2021-08-16 14:54:28
"3","USGS","11460156","WEBB C NR STINSON BEACH CA","ST",37.88687085,-122.6263696,FALSE,2021-08-16 14:54:28
"4","USGS","375159122343801","REDWOOD C A BIG LAGOON BR NR MUIR BEACH CA","ST",37.86631588,-122.578311,FALSE,2021-08-16 14:54:28
"5","USGS","11460152","REDWOOD C A MUIR BCH NR TAMALPAIS VALLEY CA","ST",37.86298265,-122.5752553,FALSE,2021-08-16 14:54:28
"6","USGS","11460154","GREEN GULCH A MUIR BCH NR TAMALPAIS VALLEY CA","ST",37.86298265,-122.5713661,FALSE,2021-08-16 14:54:28
"7","USGS","11460140","REDWOOD C BL MUIR WOODS NR MILL VALLEY CA","ST",37.8893707,-122.5671996,FALSE,2021-08-16 14:54:28
"8","USGS","11460000","CORTE MADERA C A ROSS CA","ST",37.96297947,-122.556922,FALSE,2021-08-16 14:54:28
"9","USGS","11460130","TENNESSEE VALLEY C NR TAMALPAIS VALLEY CA","ST",37.84770535,-122.5446977,FALSE,2021-08-16 14:54:28
"10","USGS","374956122322201","UNNAMED TRIB A RODEO COVE NR SAUSALITO CA","ST",37.83231667,-122.5395667,FALSE,2021-08-16 14:54:28
"11","USGS","11460120","RODEO LAGOON A FORT CRONKHITE NR SAUSALITO CA","ST",37.8310392,-122.5363637,FALSE,2021-08-16 14:54:28
"12","USGS","374955122321101","STORM DR A MITCHELL RD FOOTBRIDGE NR SAUSALITO CA","ST",37.8318722,-122.5363444,FALSE,2021-08-16 14:54:28
"13","USGS","374954122320001","STORM DRAIN A MITCHELL RD NR SAUSALITO CA","ST",37.8318,-122.5333556,FALSE,2021-08-16 14:54:28
"14","USGS","374955122313301","RODEO POND WEIR NR SAUSALITO CA","ST",37.83200556,-122.5259389,FALSE,2021-08-16 14:54:28
"15","USGS","11460110","GERBODE VALLEY C NR SAUSALITO CA","ST",37.8329836,-122.5227518,FALSE,2021-08-16 14:54:28
"16","USGS","375007122310701","GERBODE VALLEY C A MIWOK TRAIL NR SAUSALITO CA","ST",37.8352,-122.5186667,FALSE,2021-08-16 14:54:28
"17","USGS","374958122304601","RODEO C A RODEO VALLEY TRAIL NR SAUSALITO CA","ST",37.8326833,-122.5127,FALSE,2021-08-16 14:54:28
"18","USGS","11162655","SAN PEDRO C A PACIFICA","ST",37.59160417,-122.5030317,FALSE,2021-08-16 14:54:28
"19","USGS","375019122295601","UNNAMED TRIB A LAMORAUX DR NR SAUSALITO CA","ST",37.83856667,-122.49895,FALSE,2021-08-16 14:54:28
"20","USGS","375032122294301","RODEO C A TUNNEL NR SAUSALITO CA","ST",37.84235,-122.4952667,FALSE,2021-08-16 14:54:28
"21","USGS","374715122285601","LOBOS C CA","ST",37.78742948,-122.4833053,FALSE,2021-08-16 14:54:28
"22","USGS","11162720","COLMA C A SOUTH SAN FRANCISCO CA","ST",37.65382296,-122.4263613,FALSE,2021-08-16 14:54:28
"23","USGS","11162600","PURISIMA C NR HALF MOON BAY CA","ST",37.43494048,-122.3741392,FALSE,2021-08-16 14:54:28
"24","USGS","375457122203501","UNNAMED C A RICHMOND INDUSTRIAL SITE CA","ST",37.9157582,-122.3441373,FALSE,2021-08-16 14:54:28
"25","USGS","375746122195501","SAN PABLO C A EL PORTAL DR A SAN PABLO CA","ST",37.9628,-122.3319972,FALSE,2021-08-16 14:54:28
"26","USGS","11162500","PESCADERO C NR PESCADERO CA","ST",37.26077707,-122.3288602,FALSE,2021-08-16 14:54:28
"27","USGS","375808122172601","WILKIE C A SANTA RITA RD NR RICHMOND CA","ST",37.96884167,-122.2905528,FALSE,2021-08-16 14:54:28
"28","USGS","374708122132801","SAUSAL C A OAKLAND CA","ST",37.78568056,-122.2243389,FALSE,2021-08-16 14:54:28
"29","USGS","11181300","PERALTA C A OAKLAND CA","ST",37.78298369,-122.2194124,FALSE,2021-08-16 14:54:28
"30","USGS","375807122124001","PINOLE C BL ALHAMBRA VALLEY RD NR PINOLE CA","ST",37.96865278,-122.2109972,FALSE,2021-08-16 14:54:28
"31","USGS","375312122113501","SAN PABLO C A ORINDA CA","ST",37.88655278,-122.1931194,FALSE,2021-08-16 14:54:28
"32","USGS","11164500","SAN FRANCISQUITO C A STANFORD UNIVERSITY CA","ST",37.42327257,-122.1894095,FALSE,2021-08-16 14:54:28
"33","USGS","372524122111801","SAN FRANCISQUITO C A SU GOLF COURSE A PALO ALTO CA","ST",37.4229948,-122.188854,FALSE,2021-08-16 14:54:28
"34","USGS","11161800","SAN VICENTE C NR DAVENPORT CA","ST",37.05522644,-122.18219,FALSE,2021-08-16 14:54:28
"35","USGS","372622122104401","SAN FRANCISQUITO C A SAN MATEO BIKE BR A PALO ALTO","ST",37.4393833,-122.1799648,FALSE,2021-08-16 14:54:28
"36","USGS","375220122104201","SAN PABLO C A MORAGA WAY A ORINDA CA","ST",37.8645083,-122.1723056,FALSE,2021-08-16 14:54:28
"37","USGS","372650122100901","SAN FRANCISQUITO C A ALMA ST A PALO ALTO CA","ST",37.44716098,-122.1702424,FALSE,2021-08-16 14:54:28
"38","USGS","374336122095801","SAN LEANDRO C A ALVARADO ST A SAN LEANDRO CA","ST",37.7266083,-122.1661778,FALSE,2021-08-16 14:54:28
"39","USGS","11160065","BOULDER C AB JAMISON C NR BOULDER C CA","ST",37.14883507,-122.1571879,FALSE,2021-08-16 14:54:28
"40","USGS","372727122090001","SAN FRANCISQUITO C A WOODLAND AVE A PALO ALTO CA","ST",37.4574386,-122.1510753,FALSE,2021-08-16 14:54:28
"41","USGS","374810122084001","REDWOOD C A REDWOOD REG PARK NR OAKLAND CA","ST",37.80270506,-122.145521,FALSE,2021-08-16 14:54:28
"42","USGS","11160020","SAN LORENZO R NR BOULDER C CA","ST",37.20661136,-122.1449644,FALSE,2021-08-16 14:54:28
"43","USGS","372716122080801","SAN FRANCISQUITO C DS OF NEWELL RD BR A PALO ALTO","ST",37.4543832,-122.1366305,FALSE,2021-08-16 14:54:28
"44","USGS","372500122081201","MATADERO C A JOSINA AVE A PALO ALTO CA","ST",37.4168,-122.1365917,FALSE,2021-08-16 14:54:28
"45","USGS","11160045","SAN LORENZO R A BOULDER C CA","ST",37.14189079,-122.1338538,FALSE,2021-08-16 14:54:28
"46","USGS","11161590","LAGUNA C NR DAVENPORT CA","ST",37.02550486,-122.1310776,FALSE,2021-08-16 14:54:28
"47","USGS","11160036","KINGS C NR BOULDER C CA","ST",37.1596681,-122.126631,FALSE,2021-08-16 14:54:28
"48","USGS","11160070","BOULDER C AT BOULDER CREEK CA","ST",37.12661339,-122.1227425,FALSE,2021-08-16 14:54:28
"49","USGS","11161570","MAJORS C NR SANTA CRUZ CA","ST",36.99856108,-122.1213554,FALSE,2021-08-16 14:54:28
"50","USGS","11180770","MT EDEN C NR UNION CITY CA","ST",37.6170833,-122.11825,FALSE,2021-08-16 14:54:28
"51","USGS","11160060","BEAR C A BOULDER C CA","ST",37.12772447,-122.1169089,FALSE,2021-08-16 14:54:28
"52","USGS","375257122050001","LAS TRAMPAS C A LAFAYETTE CA","ST",37.8823972,-122.0999972,FALSE,2021-08-16 14:54:28
"53","USGS","11160150","LOVE C A BEN LOMOND","ST",37.0888365,-122.0880195,FALSE,2021-08-16 14:54:28
"54","USGS","11181008","CASTRO VALLEY C A HAYWARD CA","ST",37.6799311,-122.0805186,FALSE,2021-08-16 14:54:28
"55","USGS","11160230","FALL C BL BENNETT C A FELTON CA","ST",37.05300405,-122.080242,FALSE,2021-08-16 14:54:28
"56","USGS","11160250","FALL C A FELTON CA","ST",37.059115,-122.0794085,FALSE,2021-08-16 14:54:28
"57","USGS","11160055","BEAR C NR BOULDER C CA","ST",37.16494575,-122.0746845,FALSE,2021-08-16 14:54:28
"58","USGS","11160200","NEWELL C A BEN LOMOND CA","ST",37.09494746,-122.07413,FALSE,2021-08-16 14:54:28
"59","USGS","11160500","SAN LORENZO R A BIG TREES CA","ST",37.0443931,-122.072464,FALSE,2021-08-16 14:54:28
"60","USGS","11160450","ZAYANTE C A FELTON CA","ST",37.0482819,-122.0663527,FALSE,2021-08-16 14:54:28
"61","USGS","375819122035801","GRAYSON C A GOLF CLUB RD NR PLEASANT HILL CA","ST",37.972,-122.066,FALSE,2021-08-16 14:54:28
"62","USGS","11181000","SAN LORENZO C A HAYWARD CA","ST",37.68548644,-122.064407,FALSE,2021-08-16 14:54:28
"63","USGS","11169580","CALABAZAS C TRIB AT MT EDEN RD NR SARATOGA CA","ST",37.26910995,-122.0610717,FALSE,2021-08-16 14:54:28
"64","USGS","375413122033301","WALNUT C A CIVIC DR A WALNUT CREEK CA","ST",37.90366944,-122.0592167,FALSE,2021-08-16 14:54:28
"65","USGS","11169600","PROSPECT C AT SARATOGA GOLF COURSE NR SARATOGA CA","ST",37.28577626,-122.0549605,FALSE,2021-08-16 14:54:28
"66","USGS","11180960","CULL C AB CULL C RES NR CASTRO VALLEY CA","ST",37.71770737,-122.0544067,FALSE,2021-08-16 14:54:28
"67","USGS","11160320","LOMPICO C A ZAYANTE CA","ST",37.08300327,-122.0513516,FALSE,2021-08-16 14:54:28
"68","USGS","11183000","SAN RAMON C AT WALNUT CREEK CA","ST",37.8843691,-122.0510736,FALSE,2021-08-16 14:54:28
"69","USGS","11183600","WALNUT C A CONCORD CA","ST",37.9452008,-122.0496848,FALSE,2021-08-16 14:54:28
"70","USGS","11160300","ZAYANTE C A ZAYANTE CA","ST",37.08605874,-122.0469069,FALSE,2021-08-16 14:54:28
"71","USGS","11180900","CROW C NR HAYWARD CA","ST",37.70493008,-122.0438508,FALSE,2021-08-16 14:54:28
"72","USGS","11160430","BEAN C NR SCOTTS VALLEY CA","ST",37.0552261,-122.0413516,FALSE,2021-08-16 14:54:28
"73","USGS","11169500","SARATOGA C A SARATOGA CA","ST",37.25438808,-122.039404,FALSE,2021-08-16 14:54:28
"74","USGS","11169616","CALABAZAS C A RAINBOW DRIVE NR CUPERTINO CA","ST",37.300776,-122.0266263,FALSE,2021-08-16 14:54:28
"75","USGS","11160280","ZAYANTE C BL MT CHAR GUL NR ZAYANTE CA","ST",37.1060582,-122.0224612,FALSE,2021-08-16 14:54:28
"76","USGS","373630122010501","DRY C NR UNION CITY CA","ST",37.6083333,-122.0180556,FALSE,2021-08-16 14:54:28
"77","USGS","371620122005801","SARATOGA C A BRAEMAR DR A SARATOGA CA","ST",37.27225,-122.0162889,FALSE,2021-08-16 14:54:28
"78","USGS","11161500","BRANCIFORTE C A SANTA CRUZ CA","ST",36.9860611,-122.0144069,FALSE,2021-08-16 14:54:28
"79","USGS","11161400","CARBONERA C A SANTA CRUZ CA","ST",36.9866166,-122.0144069,FALSE,2021-08-16 14:54:28
"80","USGS","374933122001301","SAN RAMON C A LA GONDA WAY A DANVILLE CA","ST",37.8257111,-122.0035389,FALSE,2021-08-16 14:54:28
"81","USGS","11179100","ALAMEDA C NR FREMONT CA","ST",37.56660245,-122.0016278,FALSE,2021-08-16 14:54:28
"82","USGS","11182500","SAN RAMON C A SAN RAMON CA","ST",37.772983,-121.9946825,FALSE,2021-08-16 14:54:28
"83","USGS","11168000","LOS GATOS C A LOS GATOS CA","ST",37.2174445,-121.9874581,FALSE,2021-08-16 14:54:28
"84","USGS","11167970","LOS GATOS C AB LEXINGTON RE NR LOS GATOS CA","ST",37.1671679,-121.9796808,FALSE,2021-08-16 14:54:28
"85","USGS","11168660","LOS GATOS C A LARK A AT LOS GATOS CA","ST",37.25188815,-121.9644013,FALSE,2021-08-16 14:54:28
"86","USGS","11179000","ALAMEDA C NR NILES CA","ST",37.58715679,-121.960793,FALSE,2021-08-16 14:54:28
"87","USGS","11160000","SOQUEL C A SOQUEL CA","ST",36.9913389,-121.9557933,FALSE,2021-08-16 14:54:28
"88","USGS","11178400","STONYBROOK C NR NILES CA","ST",37.59826736,-121.9485703,FALSE,2021-08-16 14:54:28
"89","USGS","375701121564401","MT DIABLO C A CLAYTON CA","ST",37.95036389,-121.9456472,FALSE,2021-08-16 14:54:28
"90","USGS","11159800","WB SOQUEL C NR SOQUEL CA","ST",37.05133748,-121.9391252,FALSE,2021-08-16 14:54:28
"91","USGS","11169025","GUADALUPE R ABV HWY 101 A SAN JOSE CA","ST",37.3738296,-121.9330129,FALSE,2021-08-16 14:54:28
"92","USGS","371738121555901","LOS GATOS C A E HAMILTON AVE NR CAMPBELL CA","ST",37.2939,-121.933,FALSE,2021-08-16 14:54:28
"93","USGS","11143046","GARRAPATA C A HWY 1 NR NOTLEYS LANDING CA","ST",36.41718486,-121.9135663,FALSE,2021-08-16 14:54:28
"94","USGS","11167500","GUADALUPE C A GUADALUPE CA","ST",37.2171667,-121.9107886,FALSE,2021-08-16 14:54:28
"95","USGS","372303121542901","COYOTE C BL CHARCOT AVE NR SAN JOSE CA","ST",37.3843,-121.908,FALSE,2021-08-16 14:54:28
"96","USGS","11176350","ARROYO DE LA LAGUNA AB AV NR PLEASANTON CA","ST",37.66270908,-121.9063466,FALSE,2021-08-16 14:54:28
"97","USGS","11159690","APTOS C NR APTOS CA","ST",37.00161665,-121.9060688,FALSE,2021-08-16 14:54:28
"98","USGS","11168800","LOS GATOS C A LINCOLN AVE AT SAN JOSE CA","ST",37.31244207,-121.9043999,FALSE,2021-08-16 14:54:28
"99","USGS","11159700","APTOS C A APTOS CA","ST",36.9763396,-121.9024573,FALSE,2021-08-16 14:54:28
"100","USGS","11169000","GUADALUPE R A SAN JOSE CA","ST",37.3343859,-121.8994,FALSE,2021-08-16 14:54:28
"101","USGS","11174200","ALAMEDA C A SUNOL CA","ST",37.58743394,-121.890235,FALSE,2021-08-16 14:54:28
"102","USGS","11167700","ROSS C BL JARVIS RD NR SAN JOSE CA","ST",37.2632766,-121.8866208,FALSE,2021-08-16 14:54:28
"103","USGS","11177300","SINBAD C A SUNOL CA","ST",37.59465587,-121.886346,FALSE,2021-08-16 14:54:28
"104","USGS","11143020","LITTLE SUR R NR PT SUR CA","ST",36.33246319,-121.8852334,FALSE,2021-08-16 14:54:28
"105","USGS","11176900","ARROYO DE LA LAGUNA A VERONA CA","ST",37.62659915,-121.8830126,FALSE,2021-08-16 14:54:28
"106","USGS","11176600","ARROYO VALLE A PLEASANTON CA","ST",37.66715326,-121.8827347,FALSE,2021-08-16 14:54:28
"107","USGS","371814121525601","GUADALUPE R A WILLOW GLEN WAY NR SAN JOSE CA","ST",37.3039472,-121.88225,FALSE,2021-08-16 14:54:28
"108","USGS","11177200","VALLECITOS C A SUNOL CA","ST",37.5949336,-121.8819015,FALSE,2021-08-16 14:54:28
"109","USGS","11177000","ARROYO DE LA LAGUNA NR PLEASANTON CA","ST",37.61521066,-121.8816236,FALSE,2021-08-16 14:54:28
"110","USGS","11176300","TASSAJARA C NR PLEASANTON CA","ST",37.69909655,-121.8791234,FALSE,2021-08-16 14:54:28
"111","USGS","11176200","ARROYO MOCHO NR PLEASANTON CA","ST",37.6904857,-121.8732899,FALSE,2021-08-16 14:54:28
"112","USGS","11167572","GUADALUPE R A ALMTOS RCHG FAC AT SAN JOSE CA","ST",37.24744369,-121.8699534,FALSE,2021-08-16 14:54:28
"113","USGS","11166900","ALAMITOS C NR NEW ALMADEN CA","ST",37.22244434,-121.851064,FALSE,2021-08-16 14:54:28
"114","USGS","11176180","ARROYO LAS POSITAS A ELCH RD NR PLEASANTON CA","ST",37.6968743,-121.8494003,FALSE,2021-08-16 14:54:28
"115","USGS","374100121500201","R AND  J DISCHARGE NR PLEASANTON CA","ST",37.6832636,-121.8349554,FALSE,2021-08-16 14:54:28
"116","USGS","365222121483301","AG DRAIN EAST OF SHELL RD NR WATSONVILLE CA","ST",36.87273179,-121.81023,FALSE,2021-08-16 14:54:28
"117","USGS","11159150","CORRALITOS C NR CORRALITOS CA","ST",37.00550594,-121.8080085,FALSE,2021-08-16 14:54:28
"118","USGS","11176150","ARROYO LAS POSITAS NR LIVERMORE CA","ST",37.6977075,-121.8052322,FALSE,2021-08-16 14:54:28
"119","USGS","365236121481301","AG DRAIN W OF SAN ANDREAS RD NR WATSONVILLE CA","ST",36.87662059,-121.8046743,FALSE,2021-08-16 14:54:28
"120","USGS","365324121480401","WATSONVILLE SL AB HARKIN SL PUMP NR WATSONVILLE CA","ST",36.88995357,-121.8021743,FALSE,2021-08-16 14:54:28
"121","USGS","11171500","COYOTE C NR EDENVALE CA","ST",37.2707762,-121.797451,FALSE,2021-08-16 14:54:28
"122","USGS","371554121474101","COYOTE C A COYOTE RD NR SAN JOSE CA","ST",37.26493889,-121.7946583,FALSE,2021-08-16 14:54:28
"123","USGS","365247121473301","PAJARO R BL THURWATCHER RD NR WATSONVILLE CA","ST",36.8796761,-121.7935627,FALSE,2021-08-16 14:54:28
"124","USGS","371049121472501","ALMADEN-CALERO CN NR NEW ALMADEN CA","ST",37.18022329,-121.7913399,FALSE,2021-08-16 14:54:28
"125","USGS","11176145","ARROYO LAS POSITAS A LIVERMORE CA","ST",37.6996518,-121.7735646,FALSE,2021-08-16 14:54:28
"126","USGS","11143000","BIG SUR R NR BIG SUR CA","ST",36.24579648,-121.7732872,FALSE,2021-08-16 14:54:28
"127","USGS","11159200","CORRALITOS C A FREEDOM CA","ST",36.9393968,-121.7705065,FALSE,2021-08-16 14:54:28
"128","USGS","11173200","ARROYO HONDO NR SAN JOSE CA","ST",37.46160337,-121.769397,FALSE,2021-08-16 14:54:28
"129","USGS","11153470","LLAGAS C AB CHESBRO RES NR MORGAN HILL CA","ST",37.1483333,-121.7683333,FALSE,2021-08-16 14:54:28
"130","USGS","11166710","ARROYO CALERO AB CALERO RES NR NEW ALMADEN CA","ST",37.1771678,-121.763561,FALSE,2021-08-16 14:54:28
"131","USGS","372949121453901","ALAMEDA C AB DIV DAM FOR AQUEDUCT TO CALAVERAS RES","ST",37.49694444,-121.7608333,FALSE,2021-08-16 14:54:28
"132","USGS","11176500","ARROYO VALLE NR LIVERMORE CA","ST",37.62326509,-121.7588418,FALSE,2021-08-16 14:54:28
"133","USGS","374220121451601","ARROYO LAS POSITAS AB ALTAMONT C CA","ST",37.7054849,-121.7555085,FALSE,2021-08-16 14:54:28
"134","USGS","11159500","PAJARO R A WATSONVILLE CA","ST",36.9056111,-121.7518889,FALSE,2021-08-16 14:54:28
"135","USGS","365718121444301","UNNAMED TRIB A PAULSEN RD NR FREEDOM CA","ST",36.9549972,-121.7453,FALSE,2021-08-16 14:54:28
"136","USGS","11176140","ALTAMONT C NR LIVERMORE CA","ST",37.72298447,-121.7291189,FALSE,2021-08-16 14:54:28
"137","USGS","11176000","ARROYO MOCHO NR LIVERMORE CA","ST",37.62632039,-121.7046734,FALSE,2021-08-16 14:54:28
"138","USGS","11153500","LLAGAS C NR MORGAN HILL CA","ST",37.11439105,-121.6905028,FALSE,2021-08-16 14:54:28
"139","USGS","11152500","SALINAS R NR SPRECKELS CA","ST",36.631071,-121.672446,FALSE,2021-08-16 14:54:28
"140","USGS","11153530","LLAGAS C A MACHADO SCH NR MORGAN HILL CA","ST",37.08966918,-121.6616127,FALSE,2021-08-16 14:54:28
"141","USGS","11170000","COYOTE C NR MADRONE CA","ST",37.1682777,-121.6496677,FALSE,2021-08-16 14:54:28
"142","USGS","11169970","COYOTE C BL LEROY ANDERSON DAM NR MADRONE CA","ST",37.1649442,-121.6332782,FALSE,2021-08-16 14:54:28
"143","USGS","364138121373701","GABILAN C AB E LAUREL DR NR SALINAS CA","ST",36.69396389,-121.6272528,FALSE,2021-08-16 14:54:28
"144","USGS","364003121373501","ALISAL C A FAIRVIEW AVE NR SALINAS CA","ST",36.66725,-121.627,FALSE,2021-08-16 14:54:28
"145","USGS","364155121363901","NATIVIDAD C NR SALINAS CA","ST",36.6987,-121.6107222,FALSE,2021-08-16 14:54:28
"146","USGS","11152600","GABILAN C NR SALINAS CA","ST",36.75579196,-121.6105005,FALSE,2021-08-16 14:54:28
"147","USGS","11153555","LLAGAS C A SAN MARTIN CA","ST",37.0868907,-121.6052214,FALSE,2021-08-16 14:54:28
"148","USGS","370512121361901","LLAGAS C A SAN MARTIN AVE A SAN MARTIN CA","ST",37.08674167,-121.6052056,FALSE,2021-08-16 14:54:28
"149","USGS","11159000","PAJARO R A CHITTENDEN CA","ST",36.9002307,-121.5977215,FALSE,2021-08-16 14:54:28
"150","USGS","365955121350601","UVAS C A MILLER AVE A GILROY CA","ST",36.9985333,-121.5849583,FALSE,2021-08-16 14:54:28
"151","USGS","375912121345301","OLD R A HOLLAND TRACT NR ORWOOD CA","ST",37.98669444,-121.581361,FALSE,2021-08-16 14:54:28
"152","USGS","375241121343701","OLD R NR DISCOVERY BAY CA","ST",37.88996389,-121.5733417,FALSE,2021-08-16 14:54:28
"153","USGS","11313405","OLD R A BACON ISLAND CA","ST",37.96992306,-121.572174,FALSE,2021-08-16 14:54:28
"154","USGS","11313325","OLD R A INDIAN SLOUGH CA","ST",37.914369,-121.5655064,FALSE,2021-08-16 14:54:28
"155","USGS","375627121333701","OLD RIVER A FAY ISLAND NR MIDDLE RIVER CA","ST",37.9408611,-121.56015,FALSE,2021-08-16 14:54:28
"156","USGS","11313250","OLD R A CLIFTON COURT FERRY CA","ST",37.82437145,-121.5524492,FALSE,2021-08-16 14:54:28
"157","USGS","11152300","SALINAS R NR CHUALAR CA","ST",36.55357267,-121.5493856,FALSE,2021-08-16 14:54:28
"158","USGS","11312676","MIDDLE R AT MIDDLE RIVER CA","ST",37.9427017,-121.5341175,FALSE,2021-08-16 14:54:28
"159","USGS","375920121314801","MIDDLE R A MILDRED ISLAND NR ORWOOD CA","ST",37.99438889,-121.5294167,FALSE,2021-08-16 14:54:28
"160","USGS","11153650","LLAGAS C NR GILROY","ST",36.98744858,-121.5271622,FALSE,2021-08-16 14:54:28
"161","USGS","11169800","COYOTE C NR GILROY CA","ST",37.07772286,-121.4943832,FALSE,2021-08-16 14:54:28
"162","USGS","11312674","MIDDLE R A BORDEN HWY NR TRACY CA","ST",37.89159208,-121.4899492,FALSE,2021-08-16 14:54:28
"163","USGS","11152200","SALINAS R NR GONZALES CA","ST",36.4866293,-121.4693817,FALSE,2021-08-16 14:54:28
"164","USGS","11311300","TURNER CUT NR HOLT CA","ST",37.9925,-121.4538889,FALSE,2021-08-16 14:54:28
"165","USGS","365634121264001","TEQUISQUITA SLOUGH A SHORE RD NR DUNNEVILLE CA","ST",36.9427,-121.4445,FALSE,2021-08-16 14:54:28
"166","USGS","363608121255201","CHUALAR C A CHUALAR CANYON RD NR CHUALAR CA","ST",36.6022,-121.4309972,FALSE,2021-08-16 14:54:28
"167","USGS","375949121251001","FOURTEENMILE SLOUGH NR HOLT CA","ST",37.99703889,-121.4193194,FALSE,2021-08-16 14:54:28
"168","USGS","365736121250801","PACHECO C A SAN FELIPE RD NR DUNNEVILLE CA","ST",36.96,-121.4189972,FALSE,2021-08-16 14:54:28
"169","USGS","375944121252301","SAN JOAQUIN R A WINDMILL COVE RD NR HOLT CA","ST",37.99418056,-121.4143667,FALSE,2021-08-16 14:54:28
"170","USGS","11311150","STOCKTON SHIP CHANNEL A LIGHT 40 CA","ST",37.977701,-121.384393,FALSE,2021-08-16 14:54:28
"171","USGS","375831121223701","SAN JOAQUIN R A BUCKLEY COVE NR STOCKTON CA","ST",37.97527778,-121.3769444,FALSE,2021-08-16 14:54:28
"172","USGS","375719121205401","SAN JOAQUIN R A ATHERTON ISLAND NR STOCKTON CA","ST",37.9553,-121.348211,FALSE,2021-08-16 14:54:28
"173","USGS","375649121202101","SAN JOAQUIN R NR STOCKTON CA","ST",37.94686848,-121.3402249,FALSE,2021-08-16 14:54:28
"174","USGS","375706121201001","SAN JOAQUIN R AB MCCOY AVE NR STOCKTON CA","ST",37.95173889,-121.3361694,FALSE,2021-08-16 14:54:28
"175","USGS","375615121200501","SAN JOAQUIN R A NAVY DR NR STOCKTON CA","ST",37.9374611,-121.3348556,FALSE,2021-08-16 14:54:28
"176","USGS","11152000","ARROYO SECO NR SOLEDAD CA","ST",36.28052076,-121.3227063,FALSE,2021-08-16 14:54:28
"177","USGS","11151700","SALINAS R A SOLEDAD CA","ST",36.411076,-121.3193738,FALSE,2021-08-16 14:54:28
"178","USGS","375709121190301","PORT OF STOCKTON NR STOCKTON CA","ST",37.9524,-121.3175,FALSE,2021-08-16 14:54:28
"179","USGS","11157500","TRES PINOS C NR TRES PINOS CA","ST",36.76579177,-121.2996532,FALSE,2021-08-16 14:54:28
"180","USGS","374034121171100","JERUSALEM WASTE WAY (AT KASON RD) CA","ST",37.6760407,-121.2874408,FALSE,2021-08-16 14:54:28
"181","USGS","11303500","SAN JOAQUIN R NR VERNALIS CA","ST",37.6760406,-121.2663293,FALSE,2021-08-16 14:54:28
"182","USGS","375252121145401","FRENCH CAMP SLOUGH A AIRPORT WAY NR STOCKTON CA","ST",37.8810366,-121.2493883,FALSE,2021-08-16 14:54:28
"183","USGS","11290500","SAN JOAQUIN R AT MAZE RD BRIDGE NR MODESTO CA","ST",37.63993006,-121.2293835,FALSE,2021-08-16 14:54:28
"184","USGS","373842121131800","HOSPITAL C A RIVER RD NR PATTERSON CA","ST",37.6104861,-121.2246606,FALSE,2021-08-16 14:54:28
"185","USGS","373747121125200","INGRAM C A RIVER RD NR PATTERSON CA","ST",37.60048626,-121.2246605,FALSE,2021-08-16 14:54:28
"186","USGS","373701121121100","HOSPITAL C BLW CONFLUENCE OF INGRAM C NR GRAY CA","ST",37.6168749,-121.2041047,FALSE,2021-08-16 14:54:28
"187","USGS","11156500","SAN BENITO R NR WILLOW CREEK SCHOOL CA","ST",36.60940609,-121.2029797,FALSE,2021-08-16 14:54:28
"188","USGS","375120121110300","LONE TREE C A AUSTIN RD NR MANTECA CA","ST",37.85548167,-121.1852197,FALSE,2021-08-16 14:54:28
"189","USGS","374209121103800","STANISLAUS R A CASWELL STATE PARK NR RIPON CA","ST",37.70242907,-121.1782722,FALSE,2021-08-16 14:54:28
"190","USGS","373204121101800","WESTLY WASTWAY A HWY 33 CA","ST",37.53437644,-121.1727138,FALSE,2021-08-16 14:54:28
"191","USGS","374200121101200","STANISLAUS R A KOETITZ RANCH CA","ST",37.6999291,-121.1710498,FALSE,2021-08-16 14:54:28
"192","USGS","11303300","STANISLAUS R A KOETITZ RANCH NR RIPON CA","ST",37.69937357,-121.1696609,FALSE,2021-08-16 14:54:28
"193","USGS","373048121093000","DEL PUERTO C (AT HYW 33) CA","ST",37.51326576,-121.1593798,FALSE,2021-08-16 14:54:28
"194","USGS","373324121090401","SAN JOAQUIN R A LAIRD PARK NR GRAYSON CA","ST",37.55659835,-121.1521581,FALSE,2021-08-16 14:54:28
"195","USGS","11274653","DEL PUERTO C AT VINEYARD ROAD NR PATTERSON","ST",37.52076567,-121.1496575,FALSE,2021-08-16 14:54:28
"196","USGS","11290200","TUOLUMNE R A SHILOH RD BRIDGE NR GRAYSON CA","ST",37.60326424,-121.131325,FALSE,2021-08-16 14:54:28
"197","USGS","11274500","ORESTIMBA C NR NEWMAN CA","ST",37.31549247,-121.1252081,FALSE,2021-08-16 14:54:28
"198","USGS","11151500","SAN LORENZO C A KING CITY CA","ST",36.20968825,-121.1190839,FALSE,2021-08-16 14:54:28
"199","USGS","373612121070000","TUOLOMNE R A SHILOH BRIDGE CA","ST",37.60326428,-121.1177137,FALSE,2021-08-16 14:54:28
"200","USGS","11142300","SAN SIMEON C NR CAMBRIA CA","ST",35.59969297,-121.1140822,FALSE,2021-08-16 14:54:28
"201","USGS","11303000","STANISLAUS R A RIPON CA","ST",37.72965078,-121.1104934,FALSE,2021-08-16 14:54:28
"202","USGS","353406121061100","SANTA ROSA C A WINDSOR BLVD NR CAMBRIA CA","ST",35.5683046,-121.1040814,FALSE,2021-08-16 14:54:28
"203","USGS","373232121053900","WESTPORT DRAIN NR MODESTO CA","ST",37.5421544,-121.0952121,FALSE,2021-08-16 14:54:28
"204","USGS","353339121053900","SANTA ROSA C A HWY 1 BR A CAMBRIA CA","ST",35.56080477,-121.0951919,FALSE,2021-08-16 14:54:28
"205","USGS","11148900","NACIMIENTO R BL SAPAQUE C NR BRYSON CA","ST",35.78857918,-121.0938048,FALSE,2021-08-16 14:54:28
"206","USGS","11274570","SAN JOAQUIN R A PATTERSON BR NR PATTERSON CA","ST",37.4938221,-121.0804887,FALSE,2021-08-16 14:54:28
"207","USGS","353635121043101","SAN SIMEON C A PALMER FLATS NR CAMBRIA CA","ST",35.6096929,-121.0763025,FALSE,2021-08-16 14:54:28
"208","USGS","11142240","PERRY C A CAMBRIA CA","ST",35.5652492,-121.0679684,FALSE,2021-08-16 14:54:28
"209","USGS","11151300","SAN LORENZO C BL BITTERWATER C NR KING CITY CA","ST",36.26802087,-121.066303,FALSE,2021-08-16 14:54:28
"210","USGS","372236121032400","ORESTIMBA C A HWY 33 CA","ST",37.3766027,-121.057708,FALSE,2021-08-16 14:54:28
"211","USGS","370716121032701","CALIFORNIA AQUEDUCT CHECK 12 AB ONEILL FOREBAY","ST",37.1211111,-121.0575,FALSE,2021-08-16 14:54:28
"212","USGS","370655121020202","DELTA-MENDOTA CN A MCCABE RD NR ONEILL FOREBAY","ST",37.11527778,-121.0338889,FALSE,2021-08-16 14:54:28
"213","USGS","11274554","SPANISH GRANT COMBINED DRAIN NR PATTERSON CA","ST",37.43576816,-121.033542,FALSE,2021-08-16 14:54:28
"214","USGS","11274560","HARDING DRAIN A CARPENTER RD NR PATTERSON CA","ST",37.4643786,-121.0321537,FALSE,2021-08-16 14:54:28
"215","USGS","11274538","ORESTIMBA CR AT RIVER RD NR CROWS LANDING CA","ST",37.41354657,-121.0160412,FALSE,2021-08-16 14:54:28
"216","USGS","370428121005601","CALIFORNIA AQUEDUCT CHECK 13 BL ONEILL FOREBAY","ST",37.07444444,-121.0155556,FALSE,2021-08-16 14:54:28
"217","USGS","11274550","SAN JOAQUIN R NR CROWS LANDING CA","ST",37.43218889,-121.0133444,FALSE,2021-08-16 14:54:28
"218","USGS","371903120585400","NEWMAN WASTEWAY A HWY 33 NR GUSTINE CA","ST",37.29327166,-121.0121497,FALSE,2021-08-16 14:54:28
"219","USGS","374111121000301","STORM DRAIN INLET W SIDE WHITEHORSE AVE A MODESTO","ST",37.6865833,-121.0009722,FALSE,2021-08-16 14:54:28
"220","USGS","11142200","SANTA ROSA C NR CAMBRIA CA","ST",35.5763603,-120.9982426,FALSE,2021-08-16 14:54:28
"221","USGS","371306120593000","GARZAS C NR HUNT AVE CA","ST",37.2182736,-120.9927028,FALSE,2021-08-16 14:54:28
"222","USGS","374115120591601","STORM DRAIN INLET S SIDE WENTWORTH LN A MODESTO CA","ST",37.68769444,-120.9879722,FALSE,2021-08-16 14:54:28
"223","USGS","373811120590001","DRY C A GALLO BRIDGE BL HWY 132 A MODESTO CA","ST",37.63631948,-120.9843779,FALSE,2021-08-16 14:54:28
"224","USGS","11290000","TUOLUMNE R A MODESTO CA","ST",37.627153,-120.9843777,FALSE,2021-08-16 14:54:28
"225","USGS","11274000","SAN JOAQUIN R NR NEWMAN CA","ST",37.3504928,-120.97715,FALSE,2021-08-16 14:54:28
"226","USGS","371636120575200","LOS BANOS C A HWY 140 CA","ST",37.27660579,-120.9654815,FALSE,2021-08-16 14:54:28
"227","USGS","11273500","MERCED R A RIVER ROAD BRIDGE NR NEWMAN CA","ST",37.35104847,-120.9618719,FALSE,2021-08-16 14:54:28
"228","USGS","372006120571701","SAN JOAQUIN R US OF MERCED R NR HILLS FERRY CA","ST",37.3349378,-120.9557603,FALSE,2021-08-16 14:54:28
"229","USGS","374419120570701","STANISLAUS R A RIVERBANK CA","ST",37.7385395,-120.95299,FALSE,2021-08-16 14:54:28
"230","USGS","371730120563300","MUD SLOUGH A HWY 140 NR GUSTINE CA","ST",37.2916056,-120.9440924,FALSE,2021-08-16 14:54:28
"231","USGS","371444120563200","LOS BANOS C A SANTA FE GRADE CA","ST",37.2454956,-120.943258,FALSE,2021-08-16 14:54:28
"232","USGS","370620120560501","SAN LUIS WASTEWAY A INGOMAR RD CA","ST",37.10549905,-120.9357528,FALSE,2021-08-16 14:54:28
"233","USGS","11261500","SAN JOAQUIN R A FREMONT FORD BRIDGE CA","ST",37.3099386,-120.9310369,FALSE,2021-08-16 14:54:28
"234","USGS","11272500","MERCED R NR STEVINSON CA","ST",37.37077046,-120.9304826,FALSE,2021-08-16 14:54:28
"235","USGS","373925120550701","DRY C A CLAUS RD BRIDGE A MODESTO CA","ST",37.6568748,-120.9196544,FALSE,2021-08-16 14:54:28
"236","USGS","11262900","MUD SLOUGH NR GUSTINE CA","ST",37.26244,-120.9065908,FALSE,2021-08-16 14:54:28
"237","USGS","371354120541700","SANTA FE CN A GUN CLUB RD CA","ST",37.2316074,-120.9057565,FALSE,2021-08-16 14:54:28
"238","USGS","371352120541601","SANTE FE CN A GUN CLUB RD CA","ST",37.23105188,-120.9054787,FALSE,2021-08-16 14:54:28
"239","USGS","371353120535501","MUD SLOUGH A GUN CLUB RD CA","ST",37.2313297,-120.8996452,FALSE,2021-08-16 14:54:28
"240","USGS","372713120534901","TURLOCK RAINGAGE NR IDAHO RD NR TURLOCK CA","ST",37.4536111,-120.8969444,FALSE,2021-08-16 14:54:28
"241","USGS","371352120522801","SLD 2ND INFLOW TO KESTERSON RES CA","ST",37.23105215,-120.8754779,FALSE,2021-08-16 14:54:28
"242","USGS","371352120522601","SAN LUIS CN A GUN CLUB RD CA","ST",37.23105216,-120.8749223,FALSE,2021-08-16 14:54:28
"243","USGS","371306120520401","SLD 1ST INFLOW TO KESTERSON RES CA","ST",37.21827474,-120.8688106,FALSE,2021-08-16 14:54:28
"244","USGS","11150500","SALINAS R NR BRADLEY CA","ST",35.9302434,-120.8687915,FALSE,2021-08-16 14:54:28
"245","USGS","11261100","SALT SLOUGH A HWY 165 NR STEVINSON CA","ST",37.24771864,-120.8521446,FALSE,2021-08-16 14:54:28
"246","USGS","11272000","MERCED R A MILLIKEN BRIDGE NR STEVINSON LA CA","ST",37.3621602,-120.8504803,FALSE,2021-08-16 14:54:28
"247","USGS","372206120504701","MERCED R A HAGAMAN CTY PARK NR IRWIN CA","ST",37.36827118,-120.8474248,FALSE,2021-08-16 14:54:28
"248","USGS","11260815","SAN JOAQUIN R NR STEVINSON CA","ST",37.29513418,-120.8436176,FALSE,2021-08-16 14:54:28
"249","USGS","371636120494200","SAN JOAQUIN R AB BEAR C CA","ST",37.276607,-120.8293668,FALSE,2021-08-16 14:54:28
"250","USGS","351755120492401","LOS OSOS C A HORSE RANCH","ST",35.2985859,-120.8243448,FALSE,2021-08-16 14:54:28
"251","USGS","352127120484501","CHORRO C A CHORRO C RD NR MORRO BAY CA","ST",35.3575083,-120.8124639,FALSE,2021-08-16 14:54:28
"252","USGS","370936120483000","SALT SLOUGH A SAN LUIS RANCH CA","ST",37.1599433,-120.8093623,FALSE,2021-08-16 14:54:28
"253","USGS","372323120481700","HIGHLINE CN SPILL NR HILMAR CA","ST",37.38965984,-120.8057575,FALSE,2021-08-16 14:54:28
"254","USGS","11260800","BEAR C NR STEVINSON CA","ST",37.27160738,-120.8010327,FALSE,2021-08-16 14:54:28
"255","USGS","372349120475901","HIGHLINE CN NR DELHI CA","ST",37.39694444,-120.7997222,FALSE,2021-08-16 14:54:28
"256","USGS","371317120464600","MARIPOSA BYPASS-SLOUGH CA","ST",37.221331,-120.780475,FALSE,2021-08-16 14:54:28
"257","USGS","11255600","LITTLE PANOCHE C TRIB NO 2 NR PANOCHE CA","ST",36.78744979,-120.7662938,FALSE,2021-08-16 14:54:28
"258","USGS","371025120453800","SAN JOAQUIN R AB MARIPOSA BYPASS CA","ST",37.1735545,-120.7615837,FALSE,2021-08-16 14:54:28
"259","USGS","11154700","CLEAR C NR IDRIA CA","ST",36.36079387,-120.7607315,FALSE,2021-08-16 14:54:28
"260","USGS","11289800","TUOLUMNE R A HICKMAN NR WATERFORD CA","ST",37.635487,-120.7549276,FALSE,2021-08-16 14:54:28
"261","USGS","371046120445900","SAN JOAQUIN R NR SALT SLOUGH TAKEOUT CA","ST",37.1793878,-120.7507503,FALSE,2021-08-16 14:54:28
"262","USGS","370822120433500","SAN JOAQUIN R A TURNER ISLAND (ERRECA RD) CA","ST",37.1393887,-120.7274146,FALSE,2021-08-16 14:54:28
"263","USGS","372424120432800","LIVINGSTON CN A LVNGSTN TRMNT PLANT NR LVNGSTN CA","ST",37.40660436,-120.7254778,FALSE,2021-08-16 14:54:28
"264","USGS","374815120432201","STANISLAUS R A MILE 50 NR KNIGHTS FERRY CA","ST",37.80409439,-120.723818,FALSE,2021-08-16 14:54:28
"265","USGS","372450120423300","MERCED R A MCCONNELL STATE PARK NR LIVINGSTON CA","ST",37.41382645,-120.7101997,FALSE,2021-08-16 14:54:28
"266","USGS","372829120420801","MUSTANG C A NEWPORT RD NR BALLICO CA","ST",37.4746582,-120.7032563,FALSE,2021-08-16 14:54:28
"267","USGS","372839120413901","MUSTANG C A BIFURCATION STRUCTURE NR BALLICO CA","ST",37.4775,-120.6941667,FALSE,2021-08-16 14:54:28
"268","USGS","11147500","SALINAS R A PASO ROBLES CA","ST",35.6285813,-120.6843373,FALSE,2021-08-16 14:54:28
"269","USGS","351436120405201","SAN LUIS OBISPO C A LOS OSOS VLY RD NR SAN LUIS OB","ST",35.2433333,-120.681111,FALSE,2021-08-16 14:54:28
"270","USGS","351725120395901","STENNER C A MURRAY AVE A SAN LUIS OBISPO CA","ST",35.2904,-120.6663194,FALSE,2021-08-16 14:54:28
"271","USGS","352934120395501","ATASCADERO C A W MALL BR A ATASCADERO CA","ST",35.4928833,-120.6651639,FALSE,2021-08-16 14:54:28
"272","USGS","373012120393401","MUSTANG C BL RES NR OAKDALE RD NR MONTPELIER CA","ST",37.5025,-120.6577778,FALSE,2021-08-16 14:54:28
"273","USGS","371521120390800","BEAR C A BERT CRANE RD NR MERCED CA","ST",37.25577514,-120.65325,FALSE,2021-08-16 14:54:28
"274","USGS","373020120385201","MUSTANG C 1.1MI S OF MONTE VISTA AVE NR MONTPELIER","ST",37.50555556,-120.6477778,FALSE,2021-08-16 14:54:28
"275","USGS","373112120382901","MUSTANG C A MONTE VISTA AVE NR MONTPELIER CA","ST",37.52055556,-120.641111,FALSE,2021-08-16 14:54:28
"276","USGS","373115120382801","CULVERT DISCHARGE TO MUSTANG C A MONTE VISTA AVE","ST",37.5208333,-120.641111,FALSE,2021-08-16 14:54:28
"277","USGS","345727120375401","GREEN CYN C A MAIN ST NR GUADALUPE CA","ST",34.9574772,-120.6326722,FALSE,2021-08-16 14:54:28
"278","USGS","344725120363600","SAN ANTONIO C 1 MI E OF PACIFIC CA","ST",34.7902582,-120.6110038,FALSE,2021-08-16 14:54:28
"279","USGS","11271290","MERCED R A SHAFFER BRIDGE NR CRESSEY CA","ST",37.45410365,-120.6088084,FALSE,2021-08-16 14:54:28
"280","USGS","350059120351501","OSO FLACO C A OSO FLACO LK RD NR GUADALUPE CA","ST",35.01638889,-120.5875278,FALSE,2021-08-16 14:54:28
"281","USGS","350121120351301","UNNAMED TRIB TO OSO FLACO C NR GUADALUPE CA","ST",35.0225833,-120.5869722,FALSE,2021-08-16 14:54:28
"282","USGS","370635120350400","SAN JOAQUIN R A WASHINGTON RD BRIDGE CA","ST",37.1096669,-120.5854645,FALSE,2021-08-16 14:54:28
"283","USGS","373752120343801","TUOLUMNE R A TURLOCK LK STATE PK NR TURLOCK LK CA","ST",37.6310437,-120.5782547,FALSE,2021-08-16 14:54:28
"284","USGS","11141000","SANTA MARIA R A GUADALUPE","ST",34.9763661,-120.5718364,FALSE,2021-08-16 14:54:28
"285","USGS","345945120341301","OSO FLACO C A HWY 1 NR GUADALUPE CA","ST",34.99602778,-120.5704444,FALSE,2021-08-16 14:54:28
"286","USGS","344958120332901","SHUMAN C BL CASMALIA CA","ST",34.83275764,-120.5590574,FALSE,2021-08-16 14:54:28
"287","USGS","344047120331201","SANTA YNEZ R A RENWICK RD NR LOMPOC CA","ST",34.6797047,-120.5543342,FALSE,2021-08-16 14:54:28
"288","USGS","11135250","SANTA YNEZ R A 13TH ST BRIDGE A VAFB NR LOMPOC CA","ST",34.67661667,-120.5533889,FALSE,2021-08-16 14:54:28
"289","USGS","370318120325400","SAN JOAQUIN R A SANTA RITA HWY 152 BRIDGE CA","ST",37.0549456,-120.54935,FALSE,2021-08-16 14:54:28
"290","USGS","370515120321600","SAN JOAQUIN R BL DOS PALOS CA","ST",37.087445,-120.5387955,FALSE,2021-08-16 14:54:28
"291","USGS","11136100","SAN ANTONIO C NR CASMALIA CA","ST",34.78220307,-120.530167,FALSE,2021-08-16 14:54:28
"292","USGS","365027120313401","THIRD LIFT CA","ST",36.84078254,-120.5271201,FALSE,2021-08-16 14:54:28
"293","USGS","344303120313301","CREEK NR WETSU 12 CA","ST",34.7174819,-120.5268333,FALSE,2021-08-16 14:54:28
"294","USGS","345031120312801","SHUMAN C NR CASMALIA CA","ST",34.84192429,-120.5254449,FALSE,2021-08-16 14:54:28
"295","USGS","344109120312301","CREEK NR WETSU 14 CA","ST",34.68581573,-120.5240553,FALSE,2021-08-16 14:54:28
"296","USGS","11145000","SALINAS R AB PILITAS C NR SANTA MARGARITA CA","ST",35.3488625,-120.5126643,FALSE,2021-08-16 14:54:28
"297","USGS","11141600","LOS BERROS C NR NIPOMO CA","ST",35.08803198,-120.5098887,FALSE,2021-08-16 14:54:28
"298","USGS","365940120300000","SAN JOAQUIN R NR DOS PALOS GAGING STATION CA","ST",36.99439089,-120.5010129,FALSE,2021-08-16 14:54:28
"299","USGS","365912120300000","SAN JOAQUIN R AB POSO CN TAKEOUT TEMPLE SL CA","ST",36.98661325,-120.5010126,FALSE,2021-08-16 14:54:28
"300","USGS","11135180","SLOANS CYN C NR LOMPOC CA","ST",34.62887214,-120.5009986,FALSE,2021-08-16 14:54:28
"301","USGS","11141050","ORCUTT C NR ORCUTT CA","ST",34.88359037,-120.4948883,FALSE,2021-08-16 14:54:28
"302","USGS","11135000","SANTA YNEZ R A PINE CYN NR LOMPOC CA","ST",34.67220488,-120.492665,FALSE,2021-08-16 14:54:28
"303","USGS","11141280","LOPEZ C NR ARROYO GRANDE CA","ST",35.23553035,-120.4723857,FALSE,2021-08-16 14:54:28
"304","USGS","11134800","MIGUELITO C A LOMPOC CA","ST",34.6316501,-120.4648857,FALSE,2021-08-16 14:54:28
"305","USGS","11271320","DRY C NR SNELLING CA","ST",37.55493506,-120.4632498,FALSE,2021-08-16 14:54:28
"306","USGS","11289660","TUOLUMNE R A LA GRANGE BRIDGE AT LA GRANGE CA","ST",37.66576548,-120.46214,FALSE,2021-08-16 14:54:28
"307","USGS","11141160","WITTENBERG C NR ARROYO GRANDE CA","ST",35.2171971,-120.4557184,FALSE,2021-08-16 14:54:28
"308","USGS","365130120265200","SAN JOAQUIN R A FIREBAUGH BRIDGE CA","ST",36.85828196,-120.4487848,FALSE,2021-08-16 14:54:28
"309","USGS","365016120261300","FIREBAUGH WASTEWAY (HELM CN RD RD) CA","ST",36.8377267,-120.4379505,FALSE,2021-08-16 14:54:28
"310","USGS","350001120261101","NIPOMO C A HWY 101 BRIDGE CA","ST",35.00025507,-120.437386,FALSE,2021-08-16 14:54:28
"311","USGS","11141150","ARROYO GRANDE AB PHOENIX C NR ARROYO GRANDE CA","ST",35.18858618,-120.4351621,FALSE,2021-08-16 14:54:28
"312","USGS","11136050","SAN ANTONIO C AB BARKA SLOUGH CA","ST",34.7672035,-120.4337739,FALSE,2021-08-16 14:54:28
"313","USGS","11136040","HARRIS CANYON C NR ORCUTT CA","ST",34.77777778,-120.4316667,FALSE,2021-08-16 14:54:28
"314","USGS","11133500","SANTA YNEZ R NR LOMPOC CA","ST",34.6441501,-120.4309953,FALSE,2021-08-16 14:54:28
"315","USGS","11133000","SANTA YNEZ R A NARROWS NR LOMPOC CA","ST",34.63609474,-120.424606,FALSE,2021-08-16 14:54:28
"316","USGS","11132700","SALSIPUEDES C A SANTA ROSA RD NR LOMPOC CA","ST",34.62165057,-120.4221058,FALSE,2021-08-16 14:54:28
"317","USGS","11133600","CEBADA CYN C NR LOMPOC CA","ST",34.6647054,-120.4112723,FALSE,2021-08-16 14:54:28
"318","USGS","11132500","SALSIPUEDES C NR LOMPOC CA","ST",34.5885957,-120.4084938,FALSE,2021-08-16 14:54:28
"319","USGS","11143500","SALINAS R NR POZO CA","ST",35.29858465,-120.4037709,FALSE,2021-08-16 14:54:28
"320","USGS","344532120233401","SAN ANTONIO C A BRIDGE 51-06 CA","ST",34.75887038,-120.3937721,FALSE,2021-08-16 14:54:28
"321","USGS","364712120230400","DELTA-MENDOTA CN (BASS AVE) CA","ST",36.78661615,-120.3854473,FALSE,2021-08-16 14:54:28
"322","USGS","11254000","SAN JOAQUIN R NR MENDOTA CA","ST",36.8105046,-120.3782256,FALSE,2021-08-16 14:54:28
"323","USGS","373059120222201","MERCED R BL SNELLING DIV DAM NR SNELLING CA","ST",37.51632517,-120.3738017,FALSE,2021-08-16 14:54:28
"324","USGS","364718120221800","SAN JOAQUIN R BL MENDOTA POOL (BASS AVE) CA","ST",36.7882827,-120.3726692,FALSE,2021-08-16 14:54:28
"325","USGS","11137900","HUASNA R NR ARROYO GRANDE CA","ST",35.07775398,-120.3718267,FALSE,2021-08-16 14:54:28
"326","USGS","11131500","SANTA YNEZ R A COOPERS REEF NR LOMPOC CA","ST",34.61331786,-120.3573804,FALSE,2021-08-16 14:54:28
"327","USGS","364400120202600","FRESNO SLOUGH (HYW 180) CA","ST",36.7332832,-120.3415553,FALSE,2021-08-16 14:54:28
"328","USGS","11270900","MERCED R BL MERCED FALLS DAM NR SNELL CA","ST",37.5216029,-120.3324114,FALSE,2021-08-16 14:54:28
"329","USGS","350119120191701","HUASNA RIV AB TWITCHEL DAM AND CUYAMA R CA","ST",35.02192137,-120.3223804,FALSE,2021-08-16 14:54:28
"330","USGS","11140000","SISQUOC R NR GAREY","ST",34.89386807,-120.3065463,FALSE,2021-08-16 14:54:28
"331","USGS","350118120181301","ALAMO C AB TWITCHEL DAM NR OLD GAGE STATION CA","ST",35.02164358,-120.3046018,FALSE,2021-08-16 14:54:28
"332","USGS","11138100","CUYAMA R BL TWITCHELL DAM CA","ST",34.9444227,-120.2926568,FALSE,2021-08-16 14:54:28
"333","USGS","11130800","SANTA ROSA C NR BUELLTON CA","ST",34.61859605,-120.2840435,FALSE,2021-08-16 14:54:28
"334","USGS","344445120165101","SAN ANTONIO C A SAINT JOSEPH ST A LOS ALAMOS CA","ST",34.74596667,-120.2809,FALSE,2021-08-16 14:54:28
"335","USGS","352254120164701","NAVAJO C BL MCGINNIS C CA","ST",35.38163859,-120.2807093,FALSE,2021-08-16 14:54:28
"336","USGS","352134120163201","NAVAJO C AB EXPLORATORY AREA CA","ST",35.35941654,-120.2765425,FALSE,2021-08-16 14:54:28
"337","USGS","11135800","SAN ANTONIO C A LOS ALAMOS CA","ST",34.74331534,-120.2709888,FALSE,2021-08-16 14:54:28
"338","USGS","11139500","TEPUSQUET C NR SISQUOC CA","ST",34.87247964,-120.2445989,FALSE,2021-08-16 14:54:28
"339","USGS","350135120134601","CUYAMA R AB ALAMO AND HUASNA C A GAGE CA","ST",35.02636566,-120.2304313,FALSE,2021-08-16 14:54:28
"340","USGS","11136800","CUYAMA R BL BUCKHORN CYN NR SANTA MARIA CA","ST",35.0219213,-120.2284868,FALSE,2021-08-16 14:54:28
"341","USGS","11139350","FOXEN C NR SISQUOC CA","ST",34.8160919,-120.2248757,FALSE,2021-08-16 14:54:28
"342","USGS","11139000","LA BREA C NR SISQUOC CA","ST",34.852758,-120.1995967,FALSE,2021-08-16 14:54:28
"343","USGS","11129800","ZACA C NR BUELLTON CA","ST",34.64859614,-120.1843172,FALSE,2021-08-16 14:54:28
"344","USGS","11138500","SISQUOC R NR SISQUOC CA","ST",34.83970289,-120.1682063,FALSE,2021-08-16 14:54:28
"345","USGS","11128400","ALISAL C NR SOLVANG CA","ST",34.57637614,-120.1484816,FALSE,2021-08-16 14:54:28
"346","USGS","11128500","SANTA YNEZ R A SOLVANG CA","ST",34.58498706,-120.1445926,FALSE,2021-08-16 14:54:28
"347","USGS","11128250","ALAMO PINTADO C NR SOLVANG CA","ST",34.61831975,-120.120703,FALSE,2021-08-16 14:54:28
"348","USGS","11127500","ZANJA DE COTA C NR SANTA YNEZ CA","ST",34.5860986,-120.0959795,FALSE,2021-08-16 14:54:28
"349","USGS","11128025","QUIOTA C NR SANTA YNEZ CA","ST",34.56721025,-120.0945904,FALSE,2021-08-16 14:54:28
"350","USGS","11126000","SANTA YNEZ R NR SANTA YNEZ CA","ST",34.5891552,-119.9887532,FALSE,2021-08-16 14:54:28
"351","USGS","360039119583101","CALIFORNIA AQUEDUCT CHECK 21 NR KETTLEMAN CITY CA","ST",36.0108333,-119.9752778,FALSE,2021-08-16 14:54:28
"352","USGS","373637119573801","MERCED R AB BM1186 NR BRICEBURG CA","ST",37.61021064,-119.9615662,FALSE,2021-08-16 14:54:28
"353","USGS","11124600","TEQUEPIS CYN C NR SANTA YNEZ CA","ST",34.55721239,-119.9543081,FALSE,2021-08-16 14:54:28
"354","USGS","11125000","CACHUMA C NR SANTA YNEZ CA","ST",34.60832217,-119.935419,FALSE,2021-08-16 14:54:28
"355","USGS","11268200","MERCED R NR BRICEBURG CA","ST",37.63576505,-119.9332325,FALSE,2021-08-16 14:54:28
"356","USGS","365035119555300","SAN JOAQUIN R A HWY 99 NR HERNDON CA","ST",36.84300229,-119.932376,FALSE,2021-08-16 14:54:28
"357","USGS","11124500","SANTA CRUZ C NR SANTA YNEZ CA","ST",34.5966563,-119.9087519,FALSE,2021-08-16 14:54:28
"358","USGS","11268100","MERCED R BL SF NR BRICEBURG CA","ST",37.65687508,-119.8923982,FALSE,2021-08-16 14:54:28
"359","USGS","373901119530701","SF MERCED R NR MOUTH NR EL PORTAL CA","ST",37.65020867,-119.8862865,FALSE,2021-08-16 14:54:28
"360","USGS","11268000","SF MERCED R NR EL PORTAL CA","ST",37.6513197,-119.8854532,FALSE,2021-08-16 14:54:28
"361","USGS","375930119520000","KIBBIE C A LK ELEANOR CA","ST",37.99158738,-119.8676793,FALSE,2021-08-16 14:54:28
"362","USGS","11123500","SANTA YNEZ R BL LOS LAURLS CYN NR SNTA YNEZ CA","ST",34.54360358,-119.8648627,FALSE,2021-08-16 14:54:28
"363","USGS","374831119512700","SF TUOLUMNE R A CARLTON GUARD STATION CA","ST",37.8085361,-119.8585118,FALSE,2021-08-16 14:54:28
"364","USGS","361419119511801","EMPIRE WEIR #1 ON KINGS R NR STRATFORD, CA","ST",36.2385623,-119.855967,FALSE,2021-08-16 14:54:28
"365","USGS","11123490","KELLY C A LOS LAURELES CYN NR SANTA YNEZ CA","ST",34.5394374,-119.8481959,FALSE,2021-08-16 14:54:28
"366","USGS","365130119504200","SAN JOAQUIN R AB SAN JOAQUIN CC NR FRESNO CA","ST",36.8582815,-119.845983,FALSE,2021-08-16 14:54:28
"367","USGS","375954119495000","ELEANOR C A LK ELEANOR CA","ST",37.9982536,-119.8315672,FALSE,2021-08-16 14:54:28
"368","USGS","11120000","ATASCADERO C NR GOLETA CA","ST",34.4247189,-119.811805,FALSE,2021-08-16 14:54:28
"369","USGS","374001119483701","MERCED R BL FORESTA RD BRIDGE NR EL PORTAL CA","ST",37.6668742,-119.8112839,FALSE,2021-08-16 14:54:28
"370","USGS","11120500","SAN JOSE C NR GOLETA CA","ST",34.45916286,-119.8090283,FALSE,2021-08-16 14:54:28
"371","USGS","11267050","MERCED R A RANCHERIA FLAT NR EL PORTAL CA","ST",37.66937406,-119.8079505,FALSE,2021-08-16 14:54:28
"372","USGS","11276500","TUOLUMNE R NR HETCH HETCHY CA","ST",37.93742147,-119.7982326,FALSE,2021-08-16 14:54:28
"373","USGS","374017119472301","MERCED R AB HWY 140 BRIDGE NR EL PORTAL CA","ST",37.6713183,-119.7907277,FALSE,2021-08-16 14:54:28
"374","USGS","362243119471001","ARMY WEIR C.F. SF KINGS R NR RIVERDALE, CA","ST",36.37856118,-119.7870794,FALSE,2021-08-16 14:54:28
"375","USGS","365235119470700","SAN JOAQUIN R AB  HWY 41 NR PINEDALE CA","ST",36.876338,-119.7862581,FALSE,2021-08-16 14:54:28
"376","USGS","365235119465800","SAN JOAQUIN R A  HWY 41 NR PINEDALE CA","ST",36.87633804,-119.783758,FALSE,2021-08-16 14:54:28
"377","USGS","364818119464700","COMMERCIAL URBAN RUNOFF SITE A FRESNO","ST",36.8049492,-119.780701,FALSE,2021-08-16 14:54:28
"378","USGS","343246119463401","SANTA YNEZ R A LOS PRIETOS BOYS CAMP NR SANTA YNEZ","ST",34.54610529,-119.7770839,FALSE,2021-08-16 14:54:28
"379","USGS","374127119460000","CRANE C NR FORESTA CA","ST",37.6907617,-119.767672,FALSE,2021-08-16 14:54:28
"380","USGS","375810119455200","FALLS C AB WAPAMA FALLS CA","ST",37.9693649,-119.765454,FALSE,2021-08-16 14:54:28
"381","USGS","364746119445400","SNGL-DWLNG URB RNF A FRESNO 364746119445400","ST",36.79606089,-119.7493103,FALSE,2021-08-16 14:54:28
"382","USGS","342619119444701","ARROYO BURRO C A S HOPE AVE A SANTA BARBARA CA","ST",34.4386111,-119.7463889,FALSE,2021-08-16 14:54:28
"383","USGS","364818119443800","MULTI-DWELLING URBAN RUNOFF SITE A FRESNO","ST",36.80494977,-119.7448658,FALSE,2021-08-16 14:54:28
"384","USGS","342412119443501","ARROYO BURRO C A MOUTH A SANTA BARBARA CA","ST",34.4033333,-119.7430556,FALSE,2021-08-16 14:54:28
"385","USGS","342503119443501","ARROYO BURRO C US LAS POSITAS C A SANTA BARBARA CA","ST",34.4175,-119.7430556,FALSE,2021-08-16 14:54:28
"386","USGS","342506119443001","LAS POSITAS C A VERONICA SPRINGS RD SANTA BARBARA","ST",34.4183333,-119.7416667,FALSE,2021-08-16 14:54:28
"387","USGS","11266700","TAMARACK C A TAMARACK FLAT CG NR EL PORTAL CA","ST",37.75075874,-119.7351733,FALSE,2021-08-16 14:54:28
"388","USGS","342612119433401","MISSION C A DE LA VINA ST A SANTA BARBARA CA","ST",34.43666667,-119.726111,FALSE,2021-08-16 14:54:28
"389","USGS","354251119432801","I-5/WESTFARMERS CHANNEL CA","ST",35.71412587,-119.7254056,FALSE,2021-08-16 14:54:28
"390","USGS","11119750","MISSION C NR MISSION ST NR SANTA BARBARA CA","ST",34.4275,-119.7252778,FALSE,2021-08-16 14:54:28
"391","USGS","375717119424900","RANCHERIA C AB RANCHERIA FALLS CA","ST",37.954643,-119.7146188,FALSE,2021-08-16 14:54:28
"392","USGS","342516119425001","MISSION C A W MICHELTORENA ST A SANTA BARBARA CA","ST",34.4211111,-119.7138889,FALSE,2021-08-16 14:54:28
"393","USGS","11266750","MERCED R A BIG OAK FLAT NR EL PORTAL CA","ST",37.7215934,-119.713504,FALSE,2021-08-16 14:54:28
"394","USGS","342502119424801","OLD MISSION C A W VICTORIA ST A SANTA BARBARA CA","ST",34.4172222,-119.7133333,FALSE,2021-08-16 14:54:28
"395","USGS","342504119424801","OLD MISSION C SEEP A W VICTORIA ST SANTA BARBARA","ST",34.41777778,-119.7133333,FALSE,2021-08-16 14:54:28
"396","USGS","374327119424300","CASCADE C BL CASCADES CA","ST",37.7240933,-119.7129485,FALSE,2021-08-16 14:54:28
"397","USGS","11279400","SMOKEY JACK C A SMOKEY JACK CG NR YOSEMITE CA","ST",37.81659056,-119.7123949,FALSE,2021-08-16 14:54:28
"398","USGS","342500119424301","OLD MISSION C A W ANAPAMU ST A SANTA BARBARA CA","ST",34.41666667,-119.7119444,FALSE,2021-08-16 14:54:28
"399","USGS","11119745","MISSION C A ROCKY NOOK PARK A SANTA BARBARA CA","ST",34.44055266,-119.7118027,FALSE,2021-08-16 14:54:28
"400","USGS","11119760","VICTORIA ST DRAIN A OUTLET NR SANTA BARBARA CA","ST",34.41944444,-119.711111,FALSE,2021-08-16 14:54:28
"401","USGS","342653119422800","MISSION C NR FOOTHILL RD CA","ST",34.4480525,-119.708747,FALSE,2021-08-16 14:54:28
"402","USGS","342501119422801","OLD MISSION C AT MISSION C NR SANTA BARBARA CA","ST",34.41694444,-119.7077778,FALSE,2021-08-16 14:54:28
"403","USGS","342502119422801","MISSION C US OF OLD MISSION C A SANTA BARBARA CA","ST",34.4172222,-119.7077778,FALSE,2021-08-16 14:54:28
"404","USGS","342501119422601","W CARRILLO ST DRAIN TO MISSION C A SANTA BARBARA","ST",34.41694444,-119.7072222,FALSE,2021-08-16 14:54:28
"405","USGS","342458119421701","MISSION C A W CANON PERDIDO ST A SANTA BARBARA CA","ST",34.4161111,-119.7047222,FALSE,2021-08-16 14:54:28
"406","USGS","11250000","FRIANT-KERN CN A FRIANT CA","ST",36.9980051,-119.7040338,FALSE,2021-08-16 14:54:28
"407","USGS","374120119415900","GROUSE C A HWY 41 NR CHINQUAPIN CA","ST",37.6888172,-119.7007238,FALSE,2021-08-16 14:54:28
"408","USGS","342453119420001","MISSION C A BATH ST A SANTA BARBARA CA","ST",34.4147222,-119.7,FALSE,2021-08-16 14:54:28
"409","USGS","342453119415301","MISSION C AT W HALEY ST IN SANTA BARBARA CA","ST",34.4147222,-119.6980556,FALSE,2021-08-16 14:54:28
"410","USGS","342452119415201","HALEY ST DRAIN AT OUTLET IN SANTA BARBARA CA","ST",34.41444444,-119.6977778,FALSE,2021-08-16 14:54:28
"411","USGS","342451119414601","MISSION C A W GUTIERREZ ST A SANTA BARBARA CA","ST",34.41416667,-119.696111,FALSE,2021-08-16 14:54:28
"412","USGS","342448119414301","W MEDIAN DRAIN AT INTERSTATE 101 NR SANTA BARBARA","ST",34.4133333,-119.6952778,FALSE,2021-08-16 14:54:28
"413","USGS","342447119414101","MISSION C AT W MONTECITO ST IN SANTA BARBARA CA","ST",34.41305556,-119.6947222,FALSE,2021-08-16 14:54:28
"414","USGS","342434119413301","W CABRILLO BLVD DRAIN A BEACH A SANTA BARBARA CA","ST",34.40944444,-119.6925,FALSE,2021-08-16 14:54:28
"415","USGS","342446119412801","MISSION C A W MASON ST A SANTA BARBARA CA","ST",34.41277778,-119.691111,FALSE,2021-08-16 14:54:28
"416","USGS","342445119411901","MISSION C A MOUTH A SANTA BARBARA CA","ST",34.4125,-119.688611,FALSE,2021-08-16 14:54:28
"417","USGS","11121900","GIBRALTAR DAM DIV WEIR A GIBRALTAR DAM CA","ST",34.5241613,-119.68708,FALSE,2021-08-16 14:54:28
"418","USGS","373258119410000","SF MERCED R BL WAWONA CA","ST",37.54937965,-119.6843266,FALSE,2021-08-16 14:54:28
"419","USGS","373248119405000","BIG C NR WAWONA CAMPGROUND CA","ST",37.546602,-119.6815485,FALSE,2021-08-16 14:54:28
"420","USGS","373450119403800","ALDER C A HWY 41 NR WAWONA CA","ST",37.58048924,-119.6782167,FALSE,2021-08-16 14:54:28
"421","USGS","353328119395901","CALIFORNIA AQUEDUCT NR LOST HILLS CA","ST",35.55777778,-119.6663889,FALSE,2021-08-16 14:54:28
"422","USGS","11266500","MERCED R A POHONO BRIDGE NR YOSEMITE CA","ST",37.71687138,-119.6662788,FALSE,2021-08-16 14:54:28
"423","USGS","374259119395301","MERCED R A PAHONO BRIDGE A YOSEMITE VILLAGE CA","ST",37.71638889,-119.6647222,FALSE,2021-08-16 14:54:28
"424","USGS","11267300","SF MERCED R A WAWONA CA","ST",37.53882469,-119.6621022,FALSE,2021-08-16 14:54:28
"425","USGS","373218119392701","SF MERCED R AB HWY 41 BR A WAWONA CA","ST",37.53826918,-119.6584908,FALSE,2021-08-16 14:54:28
"426","USGS","375300119392500","M TUOLUMNE R BL WHITE WOLF CA","ST",37.88325578,-119.6579488,FALSE,2021-08-16 14:54:28
"427","USGS","374302119391701","MERCED R A BRIDALVEIL MORAINE NR YOSEMITE VLLGE CA","ST",37.7171491,-119.6557227,FALSE,2021-08-16 14:54:28
"428","USGS","374308119385000","BRIDALVEIL C IN YOSEMITE VALLEY CA","ST",37.7188157,-119.6482223,FALSE,2021-08-16 14:54:28
"429","USGS","374319119381701","MERCED R BL EL CAPITAN BRDG NR YOSEMITE VLLGE CA","ST",37.7218711,-119.6390553,FALSE,2021-08-16 14:54:28
"430","USGS","373251119375600","CHILNAULNA C NR N WAWONA CA","ST",37.54743547,-119.6332118,FALSE,2021-08-16 14:54:28
"431","USGS","372839119375301","BIG C AB FISH CAMP CA","ST",37.47743868,-119.6323749,FALSE,2021-08-16 14:54:28
"432","USGS","11266400","MERCED R A EL CAPITAN BR NR YOSEMITE VILAGE CA","ST",37.7240932,-119.631555,FALSE,2021-08-16 14:54:28
"433","USGS","373230119372500","SF MERCED R AB SOUTH WAWONA CA","ST",37.54160246,-119.6245997,FALSE,2021-08-16 14:54:28
"434","USGS","373222119371501","SF MERCED R ABOVE MILE 25 NR WAWONA CA","ST",37.53938036,-119.6218216,FALSE,2021-08-16 14:54:28
"435","USGS","375520119371000","TUOLUMNE R AB HETCH HETCHY RE BL PIUTE C CA","ST",37.9221439,-119.6204478,FALSE,2021-08-16 14:54:28
"436","USGS","373219119371100","SF MERCED R A SWINGING BR NR WAWONA CA","ST",37.5386111,-119.6197222,FALSE,2021-08-16 14:54:28
"437","USGS","373935119365800","BRIDALVEIL C AB BRIDALVEIL CAMPGROUND CA","ST",37.659652,-119.617106,FALSE,2021-08-16 14:54:28
"438","USGS","374340119362801","MERCED R BL EAGLE C NR YOSEMITE VLLGE CA","ST",37.7277041,-119.6087762,FALSE,2021-08-16 14:54:28
"439","USGS","374409119361301","MERCED R AB SENTINAL C NR YOSEMITE VLLGE CA","ST",37.73575924,-119.6046098,FALSE,2021-08-16 14:54:28
"440","USGS","373050119360000","BIG C NR GRIZZLY GIANT TREE CA","ST",37.51382618,-119.6009853,FALSE,2021-08-16 14:54:28
"441","USGS","374421119355601","MERCED R NR YOSEMITE LODGE NR YOSEMITE VLLGE CA","ST",37.73909239,-119.5998875,FALSE,2021-08-16 14:54:28
"442","USGS","344630119354901","BIG PINE SPRINGS AB ALAMO CYN CA","ST",34.77498209,-119.597906,FALSE,2021-08-16 14:54:28
"443","USGS","344629119354601","ALAMO CYN AB BIG PINE SPRING CA","ST",34.7747043,-119.5970726,FALSE,2021-08-16 14:54:28
"444","USGS","374956119351900","YOSEMITE C NR YOSEMITE C CAMPGROUND CA","ST",37.83214574,-119.5896114,FALSE,2021-08-16 14:54:28
"445","USGS","344632119342001","ALAMO CYN A MOUTH CA","ST",34.7755373,-119.5731827,FALSE,2021-08-16 14:54:28
"446","USGS","344632119341901","SANTA BARBARA CYN AB ALAMO CYN CA","ST",34.7755373,-119.5729049,FALSE,2021-08-16 14:54:28
"447","USGS","344359119341601","CHOKECHERRY CYN A MOUTH CA","ST",34.7330391,-119.5720718,FALSE,2021-08-16 14:54:28
"448","USGS","344359119341301","SANTA BARBARA CYN AB CHOKECHERRY CYN CA","ST",34.7330391,-119.5712384,FALSE,2021-08-16 14:54:28
"449","USGS","374435119335301","TENAYA C NR GROUP CAMP NR YOSEMITE VILLAGE CA","ST",37.742981,-119.5657191,FALSE,2021-08-16 14:54:28
"450","USGS","344437119334601","UNKNOWN C AB SANTA BARBARA CYN CA","ST",34.7435941,-119.563738,FALSE,2021-08-16 14:54:28
"451","USGS","374417119334001","MERCED R ABV CLARKS BRDGE NR YOSEMITE VILLAGE CA","ST",37.73798128,-119.5621075,FALSE,2021-08-16 14:54:28
"452","USGS","373012119334001","RAINIER C AB SPR IF NR FISHCAMP CA","ST",37.50327134,-119.5620929,FALSE,2021-08-16 14:54:28
"453","USGS","11247000","SAN JOAQUIN R BL KERCKHOFF PH NR PRATHER CA","ST",37.07911569,-119.5609712,FALSE,2021-08-16 14:54:28
"454","USGS","11264500","MERCED R A HAPPY ISLES BRIDGE NR YOSEMITE CA","ST",37.73131496,-119.5590514,FALSE,2021-08-16 14:54:28
"455","USGS","344906119332801","SANTA BARBARA CYN A CANYON RANCH CA","ST",34.8183131,-119.5587373,FALSE,2021-08-16 14:54:28
"456","USGS","374326119332400","ILLILOUETTE C NR HAPPY ISLES CA","ST",37.72381535,-119.557662,FALSE,2021-08-16 14:54:28
"457","USGS","11136600","SANTA BARBARA CYN C NR VENTUCOPA CA","ST",34.82081299,-119.5573483,FALSE,2021-08-16 14:54:28
"458","USGS","11264000","ILLILOUETTE C NR YOSEMITE VILLAGE CA","ST",37.72520416,-119.5571065,FALSE,2021-08-16 14:54:28
"459","USGS","374442119330201","TENAYA C BL MIRROR LAKE NR YOSEMITE VILLAGE CA","ST",37.74492534,-119.5515518,FALSE,2021-08-16 14:54:28
"460","USGS","11222700","KINGS R A PEOPLES WEIR NR KINGSBURG CA","ST",36.48495089,-119.5404054,FALSE,2021-08-16 14:54:28
"461","USGS","374534119315200","TENAYA C NR HALF DOME AB MIRROR LK CA","ST",37.7593693,-119.5321069,FALSE,2021-08-16 14:54:28
"462","USGS","11119530","FRANKLIN C A CARPINTERIA CA","ST",34.40416149,-119.519012,FALSE,2021-08-16 14:54:28
"463","USGS","345207119310401","SANTA BARBARA CYN A FOOTHILL RD CA","ST",34.8685881,-119.5187351,FALSE,2021-08-16 14:54:28
"464","USGS","374353119304801","MERCED R BL SUNRISE C CA","ST",37.73131489,-119.5143267,FALSE,2021-08-16 14:54:28
"465","USGS","374402119304401","SUNRISE C UPSTREAM FROM","ST",37.73381475,-119.5132157,FALSE,2021-08-16 14:54:28
"466","USGS","374403119302700","MERCED R AB SUNRISE C CA","ST",37.7340925,-119.5084932,FALSE,2021-08-16 14:54:28
"467","USGS","11119500","CARPINTERIA C NR CARPINTERIA CA","ST",34.4013836,-119.4865103,FALSE,2021-08-16 14:54:28
"468","USGS","375000119270000","TENAYA C AB TENAYA LK CA","ST",37.83325778,-119.4509933,FALSE,2021-08-16 14:54:28
"469","USGS","374838119255000","LONG MDW C AB SUNRISE HSC CA","ST",37.81048086,-119.4315472,FALSE,2021-08-16 14:54:28
"470","USGS","374740119253800","LONG MDW C TRIB NR SUNRISE HSC CA","ST",37.79437015,-119.4282133,FALSE,2021-08-16 14:54:28
"471","USGS","375439119252500","TUOLUMNE R NR GLEN AULIN BL CONNESS C CA","ST",37.91075665,-119.4246052,FALSE,2021-08-16 14:54:28
"472","USGS","375433119250900","TUOLUMNE RIVER BL CONNESS C NR TUOLUMNE MEADOWS CA","ST",37.90970278,-119.4206972,FALSE,2021-08-16 14:54:28
"473","USGS","374420119251000","MERCED R BL MERCED LK HSC CA","ST",37.73881628,-119.420433,FALSE,2021-08-16 14:54:28
"474","USGS","374417119250401","MERCED R BL MERCED LAKE NR TUOLUMNE MEADOWS CA","ST",37.73805556,-119.4177778,FALSE,2021-08-16 14:54:28
"475","USGS","375438119245600","CONNESS C BL GLEN AULIN HSC CA","ST",37.910479,-119.4165492,FALSE,2021-08-16 14:54:28
"476","USGS","375144119241601","CATHEDRAL C AB JOHN MUIR TRAIL NR TUOLUMNE MEADOWS","ST",37.8622222,-119.4044444,FALSE,2021-08-16 14:54:28
"477","USGS","375145119241501","CATHEDRAL C BL JOHN MUIR TR NR TUOLUMNE MEADOWS CA","ST",37.8625,-119.4041667,FALSE,2021-08-16 14:54:28
"478","USGS","374415119241000","MERCED R AB MERCED LK HSC CA","ST",37.73742784,-119.4037653,FALSE,2021-08-16 14:54:28
"479","USGS","355428119234901","DEER C ON PIXLEY NWR CA","ST",35.90773144,-119.397894,FALSE,2021-08-16 14:54:28
"480","USGS","374423119234800","FLETCHER C AT FOOT BR NR YOSEMITE VILLAGE CA","ST",37.7397222,-119.3966667,FALSE,2021-08-16 14:54:28
"481","USGS","375240119225800","TUOLUMNE R BL TUOLUMNE MEADOWS CA","ST",37.8777025,-119.3837688,FALSE,2021-08-16 14:54:28
"482","USGS","11221900","KINGS R A PIEDRA BRIDGE NR PIEDRA PO CA","ST",36.8168938,-119.383181,FALSE,2021-08-16 14:54:28
"483","USGS","375234119225900","TUOLUMNE R AB BUDD C A TUOLUMNE MEADOWS CA","ST",37.8761111,-119.3830556,FALSE,2021-08-16 14:54:28
"484","USGS","375304119224201","DELANEY C AB DELANY MDW NR TUOLUMNE MEADOWS CA","ST",37.8846111,-119.3785389,FALSE,2021-08-16 14:54:28
"485","USGS","375303119224101","DELANEY C BL PACIFIC CREST TR NR TUOLUMNE MEADOWS","ST",37.88416667,-119.3780556,FALSE,2021-08-16 14:54:28
"486","USGS","375306119223001","DELANEY C AB PACIFIC CREST TR NR TUOLUMNE MEADOWS","ST",37.885,-119.375,FALSE,2021-08-16 14:54:28
"487","USGS","374240119215800","MERCED R AB WASHBURN LK BL RED PEAK FK CA","ST",37.7110411,-119.3670945,FALSE,2021-08-16 14:54:28
"488","USGS","374237119215500","MERCED R AB WASHBURN LK CA","ST",37.7102078,-119.366261,FALSE,2021-08-16 14:54:28
"489","USGS","11136500","CUYAMA R NR VENTUCOPA CA","ST",34.68804167,-119.3587333,FALSE,2021-08-16 14:54:28
"490","USGS","11274725","TUOLUMNE R A TUOLUMNE MEADOWS CA","ST",37.87603638,-119.3551562,FALSE,2021-08-16 14:54:28
"491","USGS","375234119211400","TUOLUMNE R AB HWY120 BRIDGE A TUOLUMNE MEADOWS CA","ST",37.8761111,-119.3538889,FALSE,2021-08-16 14:54:28
"492","USGS","374727119210000","FLETCHER C BL VOGELSANG HIGH SIERRA CAMP CA","ST",37.79076075,-119.3509867,FALSE,2021-08-16 14:54:28
"493","USGS","375616119204401","LOWER YOUNG LAKE OUTLET NR TUOLUMNE MEADOWS CA","ST",37.93777778,-119.3455556,FALSE,2021-08-16 14:54:28
"494","USGS","351745119203401","CALIFORNIA AQUEDUCT A TUPMAN CA","ST",35.2958333,-119.3427778,FALSE,2021-08-16 14:54:28
"495","USGS","374749119202500","FLETCHER C AB FLETCHER LAKE CA","ST",37.7968719,-119.3412642,FALSE,2021-08-16 14:54:28
"496","USGS","375211119195400","LYELL FORK AB TWIN BRIDGES NR TUOLUMNE MEADOWS CA","ST",37.8697222,-119.3316667,FALSE,2021-08-16 14:54:28
"497","USGS","375240119194600","DANA FORK NR TUOLUMNE MEADOWS CA","ST",37.87770344,-119.3304327,FALSE,2021-08-16 14:54:28
"498","USGS","351355119194801","CALIFORNIA AQUEDUCT CHECK 29 NR TUPMAN CA","ST",35.23194444,-119.33,FALSE,2021-08-16 14:54:28
"499","USGS","375210119194200","LYELL FORK IN TUOLUMNE MEADOWS CA","ST",37.8693703,-119.3293213,FALSE,2021-08-16 14:54:28
"500","USGS","374224119192700","LYELL FORK MERCED R NR TUOLUMNE MEADOWS CA","ST",37.70666667,-119.3241667,FALSE,2021-08-16 14:54:28
"501","USGS","375245119180700","DANA FORK BL GAYLOR CREEK NR TUOLUMNE MEADOWS CA","ST",37.87916667,-119.3019444,FALSE,2021-08-16 14:54:28
"502","USGS","374620119155200","MACLURE C AB LYELL FORK NR TUOLUMNE MEADOWS CA","ST",37.7722222,-119.2644444,FALSE,2021-08-16 14:54:28
"503","USGS","374813119154901","LYELL FK TUOLUMNE R 1.4 MI BL KUNA C NR TUOLUMNE M","ST",37.8036111,-119.263611,FALSE,2021-08-16 14:54:28
"504","USGS","374742119154401","LYELL FK TUOLUMNE R .56 MI BL KUNA C NR TUOLUMNE M","ST",37.795,-119.2618889,FALSE,2021-08-16 14:54:28
"505","USGS","374640119154101","LYELL FORK TUOLUMNE R BL MACLURE C NR TUOLUMNE MDW","ST",37.77777778,-119.2613889,FALSE,2021-08-16 14:54:28
"506","USGS","374530119152600","LYELL FORK TUOLUMNE R NR TUOLUMNE MEADOWS CA","ST",37.7583333,-119.2580556,FALSE,2021-08-16 14:54:28
"507","USGS","11218500","KINGS R BL NF NR TRIMMER CA","ST",36.87466959,-119.1417828,FALSE,2021-08-16 14:54:28
"508","USGS","374650119073901","ALGER C A HWY 158 NR AB SILVER LAKE NR JUNE LK CA","ST",37.78048599,-119.1284792,FALSE,2021-08-16 14:54:28
"509","USGS","374643119073701","SILVER LAKE SITE 1 NR JUNE LAKE CA","ST",37.7785416,-119.1279236,FALSE,2021-08-16 14:54:28
"510","USGS","374628119072801","SILVER LAKE SITE 3 NR JUNE LAKE CA","ST",37.77437507,-119.1254235,FALSE,2021-08-16 14:54:28
"511","USGS","11213500","KINGS R AB NF NR TRIMMER CA","ST",36.8632806,-119.124282,FALSE,2021-08-16 14:54:28
"512","USGS","374638119072101","SILVER LAKE SITE 2 NR JUNE LAKE CA","ST",37.77715277,-119.123479,FALSE,2021-08-16 14:54:28
"513","USGS","10287300","RUSH C PP TAILRACE NR JUNE LAKE CA","ST",37.76631976,-119.1223677,FALSE,2021-08-16 14:54:28
"514","USGS","374557119071401","RUSH C A HWY 158 NR JUNE LAKE CA","ST",37.7657642,-119.1215344,FALSE,2021-08-16 14:54:28
"515","USGS","374553119070101","REVERSED C A DREAM MTN RD NR JUNE LAKE CA","ST",37.76465316,-119.1179232,FALSE,2021-08-16 14:54:28
"516","USGS","11113900","SATICOY DIV NR SATICOY","ST",34.29277989,-119.1173279,FALSE,2021-08-16 14:54:28
"517","USGS","341742119065401","SANTA CLARA R A FREEMAN DIV CA","ST",34.295002,-119.115939,FALSE,2021-08-16 14:54:28
"518","USGS","10287400","RUSH C AB GRANT LK NR JUNE LK CA","ST",37.80631867,-119.1090349,FALSE,2021-08-16 14:54:28
"519","USGS","374557119055501","REVERSED C A REVERSED C ROAD NR JUNE LAKE CA","ST",37.7657643,-119.0995896,FALSE,2021-08-16 14:54:28
"520","USGS","374613119052201","REVERSED C BL SKI AREA A HWY 158 NR JUNE LAKE CA","ST",37.7702087,-119.0904229,FALSE,2021-08-16 14:54:28
"521","USGS","374635119050801","GULL LAKE SITE 1 A JUNE LAKE CA","ST",37.77631965,-119.086534,FALSE,2021-08-16 14:54:28
"522","USGS","374618119045801","REVERSED C BL GULL LAKE A HWY 158 NR JUNE LAKE CA","ST",37.77159758,-119.0837562,FALSE,2021-08-16 14:54:28
"523","USGS","374626119045401","GULL LAKE SITE 3 NR JUNE LAKE CA","ST",37.77381974,-119.082645,FALSE,2021-08-16 14:54:28
"524","USGS","11113500","SANTA PAULA C NR SANTA PAULA","ST",34.4133295,-119.0823272,FALSE,2021-08-16 14:54:28
"525","USGS","374636119044801","GULL LAKE SITE 2 NR JUNE LAKE CA","ST",37.77659745,-119.0809784,FALSE,2021-08-16 14:54:28
"526","USGS","374640119044501","GULL LAKE INLET A JUNE LAKE CA","ST",37.7777085,-119.080145,FALSE,2021-08-16 14:54:28
"527","USGS","342113119014001","SANTA CLARA R 1.4 MI US FM BR ON SO MTN RD CA","ST",34.35361036,-119.0287138,FALSE,2021-08-16 14:54:28
"528","USGS","11105780","BIG SYCAMORE CYN C NR POINT MUGU CA","ST",34.0750074,-119.0153776,FALSE,2021-08-16 14:54:28
"529","USGS","11230540","SF SAN JOAQUIN R A MONO HOT SPRINGS CA","ST",37.32605417,-119.013451,FALSE,2021-08-16 14:54:28
"530","USGS","374317119003301","DEADMAN C NR LO CAMPGROUND NR MAMMOTH LAKES CA","ST",37.72132176,-119.0101415,FALSE,2021-08-16 14:54:28
"531","USGS","373620119002801","MAMMOTH C BL LK MARY NR MAMMOTH LAKES CA","ST",37.6054923,-119.0087429,FALSE,2021-08-16 14:54:28
"532","USGS","10265125","MAMMOTH C A TWIN LAKES NR MAMMOTH LAKES CA","ST",37.623825,-119.0056889,FALSE,2021-08-16 14:54:28
"533","USGS","373557118594401","MAMMOTH C AB LK MARY NR MAMMOTH LAKES CA","ST",37.5991035,-118.99652,FALSE,2021-08-16 14:54:28
"534","USGS","10265127","MAMMOTH C TRIB BL MILL CITY NR MAMMOTH LAKES CA","ST",37.6225,-118.9930556,FALSE,2021-08-16 14:54:28
"535","USGS","341245118592201","CONEJO C A ADOLFO RD CA","ST",34.21250494,-118.9903783,FALSE,2021-08-16 14:54:28
"536","USGS","373749118591801","MAMMOTH C AB OLD MAMMOTH NR MAMMOTH LAKES CA","ST",37.6302135,-118.9893002,FALSE,2021-08-16 14:54:28
"537","USGS","373531118591401","MAMMOTH C A TRAILHEAD NR MAMMOTH LAKES CA","ST",37.59188137,-118.988186,FALSE,2021-08-16 14:54:28
"538","USGS","374506118585701","GLASS C NR CRESTVIEW NR MAMMOTH LAKES CA","ST",37.75159857,-118.9834762,FALSE,2021-08-16 14:54:28
"539","USGS","373806118575701","MAMMOTH C A SHERWIN C RD NR MAMMOTH LAKES CA","ST",37.63493527,-118.9668,FALSE,2021-08-16 14:54:28
"540","USGS","10265128","MAMMOTH C A OLD MAMMOTH RD A MAMMOTH LAKES CA","ST",37.635213,-118.965689,FALSE,2021-08-16 14:54:28
"541","USGS","340313118574701","LITTLE SYCAMORE CYN C A HWY 1 NR SOLROMAR CA","ST",34.0536189,-118.9639862,FALSE,2021-08-16 14:54:28
"542","USGS","11194000","KERN R NR BAKERSFIELD CA","ST",35.43162386,-118.9462092,FALSE,2021-08-16 14:54:28
"543","USGS","374501118561501","OWENS R BL BIG SPRINGS NR MAMMOTH LAKES CA","ST",37.7502097,-118.9384738,FALSE,2021-08-16 14:54:28
"544","USGS","11105660","ARROYO SEQUIT A CARRILLO ST BCH NR PT MUGU CA","ST",34.04556336,-118.934818,FALSE,2021-08-16 14:54:28
"545","USGS","341334118554501","ARROYO CONEJO A HILL CYN CA","ST",34.22611567,-118.9300983,FALSE,2021-08-16 14:54:28
"546","USGS","11113000","SESPE C NR FILLMORE","ST",34.4416618,-118.9273212,FALSE,2021-08-16 14:54:28
"547","USGS","341618118552201","ARROYO SIMI A HITCH RD CA","ST",34.27166977,-118.9237096,FALSE,2021-08-16 14:54:28
"548","USGS","11209500","NF KAWEAH R A KAWEAH CA","ST",36.49022518,-118.9209344,FALSE,2021-08-16 14:54:28
"549","USGS","10265130","MAMMOTH C A HWY 395 NR  MAMMOTH LAKES CA","ST",37.63771209,-118.9037433,FALSE,2021-08-16 14:54:28
"550","USGS","10265140","MAMMOTH C FLUME NR MAMMOTH LAKES CA","ST",37.64048976,-118.90041,FALSE,2021-08-16 14:54:28
"551","USGS","341637118522601","ARROYO SIMI AT MOORPARK RD CA","ST",34.27694724,-118.8748189,FALSE,2021-08-16 14:54:28
"552","USGS","10265143","HOT C AB HOT C FISH HATCHERY NR MAMMOTH LAKES CA","ST",37.64354464,-118.8540202,FALSE,2021-08-16 14:54:28
"553","USGS","373837118510801","MAMMOTH C AB HOT C NR MAMMOTH LAKES CA","ST",37.6435446,-118.8531868,FALSE,2021-08-16 14:54:28
"554","USGS","373835118510701","HOT C BL FISH HATCHERY NR MAMMOTH LAKES - SITE A","ST",37.64298908,-118.852909,FALSE,2021-08-16 14:54:28
"555","USGS","341733118505001","ARROYO SIMI AT LOS ANGELES AVENUE CA","ST",34.29250205,-118.8481512,FALSE,2021-08-16 14:54:28
"556","USGS","10265160","LITTLE HOT C BL HOT SPR NR MAMMOTH LAKES, CA","ST",37.6902105,-118.8429107,FALSE,2021-08-16 14:54:28
"557","USGS","10265147","HOT C AB GORGE GEYSER NR MAMMOTH LAKES CA","ST",37.65743307,-118.8326313,FALSE,2021-08-16 14:54:28
"558","USGS","373944118493601","HOT C A HOT SPRINGS NR MAMMOTH LAKES CA","ST",37.66215518,-118.8276313,FALSE,2021-08-16 14:54:28
"559","USGS","10265150","HOT C A FLUME NR MAMMOTH LAKES CA","ST",37.66882166,-118.8176312,FALSE,2021-08-16 14:54:28
"560","USGS","11105580","ZUMA C A RAINSFORD PL NR MALIBU CA","ST",34.02250765,-118.8170344,FALSE,2021-08-16 14:54:28
"561","USGS","363113118480101","MARBLE F KAWEAH R A POTWISHA CAMP,CALIF","ST",36.52022328,-118.8012097,FALSE,2021-08-16 14:54:28
"562","USGS","371212118480001","SF SAN JOAQUIN R NR MT HENRY,CALIF","ST",37.20327154,-118.8009465,FALSE,2021-08-16 14:54:28
"563","USGS","11208000","MARBLE F KAWEAH R (R ONLY) A POTWISHA CAMP CA","ST",36.5218899,-118.7992652,FALSE,2021-08-16 14:54:28
"564","USGS","341640118474502","ARROYO SIMI AT MADERA RD BRIDGE NR SIMI CA","ST",34.2777804,-118.7967603,FALSE,2021-08-16 14:54:28
"565","USGS","371123118473601","SF SAN JOAQUIN R NR EVOLUTION VLY CA","ST",37.1896604,-118.7942793,FALSE,2021-08-16 14:54:28
"566","USGS","11206500","MF KAWEAH R NR POTWISHA CAMP(RIVER ONLY) CA","ST",36.51300095,-118.7917648,FALSE,2021-08-16 14:54:28
"567","USGS","11208730","EF KAWEAH R NR THREE RIVERS CA","ST",36.4513346,-118.7884306,FALSE,2021-08-16 14:54:28
"568","USGS","11104400","MALIBU C A CORNELL CA","ST",34.11417268,-118.7792567,FALSE,2021-08-16 14:54:28
"569","USGS","370847118462601","SF SAN JOAQUIN R NR EMERALD PK.,CALIF","ST",37.14632714,-118.774833,FALSE,2021-08-16 14:54:28
"570","USGS","11208680","SQUIRREL C BL MINERAL KING HWY NR HAMMOND CA","ST",36.4432788,-118.7675966,FALSE,2021-08-16 14:54:28
"571","USGS","340215118455401","LATIGO C A LATIGO CYN RD NR PT DUME CA","ST",34.03750716,-118.7659212,FALSE,2021-08-16 14:54:28
"572","USGS","363112118454601","MF KAWEAH R NR BUCKEYE FLAT CA","ST",36.51994496,-118.7637087,FALSE,2021-08-16 14:54:28
"573","USGS","371127118454201","EVOLUTION C NR EVOLUTION MEADOW,CALIF.","ST",37.1907705,-118.7626125,FALSE,2021-08-16 14:54:28
"574","USGS","362100118454001","SF KAWEAH R A SF RANGER STATION CA","ST",36.34994604,-118.7620397,FALSE,2021-08-16 14:54:28
"575","USGS","11110000","PIRU C NR PIRU CA","ST",34.42499608,-118.7620366,FALSE,2021-08-16 14:54:28
"576","USGS","363107118453501","PARADISE C NR BUCKEYE FLAT,CALIF","ST",36.518556,-118.760653,FALSE,2021-08-16 14:54:28
"577","USGS","362540118452901","EF KAWEAH R A LOOKOUT PT CA","ST",36.42772325,-118.758985,FALSE,2021-08-16 14:54:28
"578","USGS","11109600","PIRU CREEK ABOVE LAKE PIRU CA","ST",34.52304728,-118.7570362,FALSE,2021-08-16 14:54:28
"579","USGS","340655118451801","MEDEA C A PARAMOUNT RCH NR CORNELL CA","ST",34.11528369,-118.7559224,FALSE,2021-08-16 14:54:28
"580","USGS","11109800","PIRU CREEK BELOW SANTA FELICIA DAM CA","ST",34.4602723,-118.7520361,FALSE,2021-08-16 14:54:28
"581","USGS","363138118445801","MORO C NR BUCKEYE FLAT CA","ST",36.52716695,-118.750375,FALSE,2021-08-16 14:54:28
"582","USGS","11109550","PIRU C AB FRENCHMANS FLAT CA","ST",34.63082016,-118.7484244,FALSE,2021-08-16 14:54:28
"583","USGS","363634118444901","CLOVER C NR GENERALS HWY CA","ST",36.60938874,-118.7478763,FALSE,2021-08-16 14:54:28
"584","USGS","365543118444001","MF KINGS R NR BLUE CYN FALLS CA","ST",36.928552,-118.745381,FALSE,2021-08-16 14:54:28
"585","USGS","10265360","HILTON C A LK CROWLEY CA","ST",37.57937674,-118.7415163,FALSE,2021-08-16 14:54:28
"586","USGS","11109000","SANTA CLARA R NR PIRU CA","ST",34.40360813,-118.739258,FALSE,2021-08-16 14:54:28
"587","USGS","363623118441401","SILLIMAN C NR GENERALS HWY CA","ST",36.60633295,-118.7381539,FALSE,2021-08-16 14:54:28
"588","USGS","362542118432701","HORSE C NR LOOKOUT PT RANGER STATION CA","ST",36.42827808,-118.7250955,FALSE,2021-08-16 14:54:28
"589","USGS","371025118432101","EVOLUTION C NR EVOLUTION LAKE,CALIF.","ST",37.1735476,-118.7234446,FALSE,2021-08-16 14:54:28
"590","USGS","371017118424601","DARWIN CYN C NR EVOLUTION LAKE,CALIF.","ST",37.1713252,-118.7137222,FALSE,2021-08-16 14:54:28
"591","USGS","363629118424201","MARBLE F KAWEAH R NR LODGEPOLE CAMP CA","ST",36.6079989,-118.7125979,FALSE,2021-08-16 14:54:28
"592","USGS","342359118424501","SANTA CLARA R 200 FT BL TAPO CYN E RD NR VAL VERDE","ST",34.3997222,-118.7125,FALSE,2021-08-16 14:54:28
"593","USGS","345002118424201","CALIFORNIA AQUEDUCT CHECK 41 A TEHACHAPI AFTERBAY","ST",34.83388889,-118.7116667,FALSE,2021-08-16 14:54:28
"594","USGS","371033118423501","MCGEE CYN C NR COLBY MEADOW,CALIF","ST",37.1757695,-118.7106668,FALSE,2021-08-16 14:54:28
"595","USGS","11108500","SANTA CLARA RIVER AT L.A.-VENTURA CO. LINE CA","ST",34.39971939,-118.7048126,FALSE,2021-08-16 14:54:28
"596","USGS","11208650","REDWOOD C AB MINERAL KING HWY NR HAMMOND CA","ST",36.4538329,-118.7037065,FALSE,2021-08-16 14:54:28
"597","USGS","11105500","MALIBU C AT CRATER CAMP NR CALABASAS CA","ST",34.07778456,-118.7017534,FALSE,2021-08-16 14:54:28
"598","USGS","11206820","MARBLE FORK KAWEAH R AB HORSE C NR LODGEPOLE CA","ST",36.61166667,-118.7016667,FALSE,2021-08-16 14:54:28
"599","USGS","11105410","COLD C A PIUMA RD NR MONTE NIDO CA","ST",34.07917344,-118.6992534,FALSE,2021-08-16 14:54:28
"600","USGS","364809118413901","LEWIS C A PARK BOUNDARY,CALIF","ST",36.80244156,-118.6951007,FALSE,2021-08-16 14:54:28
"601","USGS","364101118412400","N LOST LK C NR CEDAR GROVE CA","ST",36.68355357,-118.690932,FALSE,2021-08-16 14:54:28
"602","USGS","11206800","MARBLE FORK KAWEAH R AB TOKOPAH FALLS NR KAWEAH CA","ST",36.60855386,-118.6887086,FALSE,2021-08-16 14:54:28
"603","USGS","364236118411301","SUGARLOAF C NR COMANCHE MEADOWS CA","ST",36.70994225,-118.6878769,FALSE,2021-08-16 14:54:28
"604","USGS","340245118411501","MALIBU C A PALM CYN LANE A MALIBU CA","ST",34.0459722,-118.6876389,FALSE,2021-08-16 14:54:28
"605","USGS","10265702","ROCK C AB DIV NR TOMS PLACE CA","ST",37.54993206,-118.6865142,FALSE,2021-08-16 14:54:28
"606","USGS","364000118404500","SF SUGARLOAF C NR CEDAR GROVE CA","ST",36.6666089,-118.6800983,FALSE,2021-08-16 14:54:28
"607","USGS","364234118404401","SF SUGARLOAF C NR COMANCHE MEADOWS CA","ST",36.70938648,-118.6798213,FALSE,2021-08-16 14:54:28
"608","USGS","364723118403401","SHEEP C NR CEDAR GROVE,CALIF","ST",36.7896635,-118.6770447,FALSE,2021-08-16 14:54:28
"609","USGS","365650118403001","MF KINGS R BL SLIDE C CA","ST",36.9471615,-118.675936,FALSE,2021-08-16 14:54:28
"610","USGS","11208630","ATWELL C AB MINERAL KING HWY NR HAMMOND CA","ST",36.46577658,-118.6759284,FALSE,2021-08-16 14:54:28
"611","USGS","362102118402801","SF KAWEAH R NR HOCKETT LAKES CA","ST",36.35049984,-118.6753712,FALSE,2021-08-16 14:54:28
"612","USGS","342420118402201","SANTA CLARA R 0.1 MI AB POTRERO CYN NR VAL VERDE","ST",34.40555556,-118.6727778,FALSE,2021-08-16 14:54:28
"613","USGS","11212423","SF KINGS R A CEDAR GROVE CA","ST",36.79021886,-118.6698224,FALSE,2021-08-16 14:54:28
"614","USGS","362730118400001","EF KAWEAH R NR CABIN COVE CA","ST",36.45827644,-118.6675948,FALSE,2021-08-16 14:54:28
"615","USGS","370059118394101","GODDARD C NR TUNEMAH LK CA","ST",37.01632696,-118.6623262,FALSE,2021-08-16 14:54:28
"616","USGS","370102118391901","DISAPPEARING C NR MT WOODWORTH CA","ST",37.01716017,-118.656215,FALSE,2021-08-16 14:54:28
"617","USGS","11208625","EF KAWEAH R A SEQ NATL P BNDRY NR HAMMOND CA","ST",36.4582761,-118.6539834,FALSE,2021-08-16 14:54:28
"618","USGS","365743118382501","DOUGHERTY C IN SIMPSON MDW CA","ST",36.96188288,-118.6412135,FALSE,2021-08-16 14:54:28
"619","USGS","364406118382200","SUGARLOAF C TRIB A MOUTH NR CEDAR GROVE CA","ST",36.73494086,-118.6403767,FALSE,2021-08-16 14:54:28
"620","USGS","342507118380301","SANTA CLARA R 0.3 MI BL CASTAIC C NR VALENCIA CA","ST",34.4186074,-118.6350884,FALSE,2021-08-16 14:54:28
"621","USGS","365808118375901","HORSESHOE C IN SIMPSON MDW CA","ST",36.9688271,-118.6339913,FALSE,2021-08-16 14:54:28
"622","USGS","364427118373900","FERGUSON C A MOUTH NR CEDAR GROVE CA","ST",36.74077385,-118.6284322,FALSE,2021-08-16 14:54:28
"623","USGS","365845118373601","MF KINGS R IN SIMPSON MDW CA","ST",36.97910466,-118.6276025,FALSE,2021-08-16 14:54:28
"624","USGS","364659118372100","ROARING R A ROARING R FALLS NR CEDAR GROVE CA","ST",36.78299554,-118.6234328,FALSE,2021-08-16 14:54:28
"625","USGS","364658118371801","ROARING R A ROARING R FALLS,CALIF","ST",36.78271774,-118.6225994,FALSE,2021-08-16 14:54:28
"626","USGS","11208620","EF KAWEAH R BL MOSQUITO C NR HAMMOND CA","ST",36.45133088,-118.6187048,FALSE,2021-08-16 14:54:28
"627","USGS","364454118370100","ROARING R AB SUGARLOAF C NR CEDAR GROVE CA","ST",36.7482735,-118.6178766,FALSE,2021-08-16 14:54:28
"628","USGS","11208619","MOSQUITO C NR HAMMOND CA","ST",36.44994198,-118.6175937,FALSE,2021-08-16 14:54:28
"629","USGS","362647118360801","EAGLE C NR MINERAL KING CA","ST",36.44633056,-118.6031489,FALSE,2021-08-16 14:54:28
"630","USGS","364732118360601","GRANITE C NR ZUMWALT MEADOWS CA","ST",36.79216158,-118.6025993,FALSE,2021-08-16 14:54:28
"631","USGS","11208615","EF KAWEAH R BL MONARCH C NR HAMMOND CA","ST",36.4524415,-118.5998156,FALSE,2021-08-16 14:54:28
"632","USGS","11208606","SPRING C NR HAMMOND CA","ST",36.444386,-118.5981488,FALSE,2021-08-16 14:54:28
"633","USGS","370555118354601","MF KINGS R NR LE CONTE RANGER STATION CA","ST",37.0985463,-118.597051,FALSE,2021-08-16 14:54:28
"634","USGS","11208607","EF KAWEAH R AB MONARCH C NR HAMMOND CA","ST",36.4502192,-118.595371,FALSE,2021-08-16 14:54:28
"635","USGS","11208605","EF KAWEAH R BL EAGLE C NR HAMMOND CA","ST",36.445497,-118.5948154,FALSE,2021-08-16 14:54:28
"636","USGS","11208610","MONARCH C NR HAMMOND CA","ST",36.45244139,-118.5945377,FALSE,2021-08-16 14:54:28
"637","USGS","342557118353801","SANTA CLARA R 0.1 MILE BL VALENCIA WRP A VALENCIA","ST",34.4325,-118.5938889,FALSE,2021-08-16 14:54:28
"638","USGS","340248118352401","TUNA C NR TOPANGA BCH CA","ST",34.0466749,-118.5909166,FALSE,2021-08-16 14:54:28
"639","USGS","364247118352200","BARTON PEAK C NR CEDAR GROVE CA","ST",36.71299519,-118.5903756,FALSE,2021-08-16 14:54:28
"640","USGS","11208603","WHITE CHIEF C NR HAMMOND CA","ST",36.4332748,-118.5898151,FALSE,2021-08-16 14:54:28
"641","USGS","365952118351001","CARTRIDGE C NR TRIPLE FALLS CA","ST",36.99771486,-118.5870466,FALSE,2021-08-16 14:54:28
"642","USGS","11104000","TOPANGA C NR TOPANGA BCH CA","ST",34.06445228,-118.587028,FALSE,2021-08-16 14:54:28
"643","USGS","342535118350801","SANTA CLARA R A OLD RD NR VALENCIA CA","ST",34.42638483,-118.5864759,FALSE,2021-08-16 14:54:28
"644","USGS","370539118350701","DUSY BRANCH NR LE CONTE RANGER STATION CA","ST",37.09410174,-118.5862173,FALSE,2021-08-16 14:54:28
"645","USGS","11208602","FRANKLIN C NR HAMMOND CA","ST",36.43049696,-118.5842594,FALSE,2021-08-16 14:54:28
"646","USGS","364345118345901","MORAINE C NR MORAINE MEADOWS CA","ST",36.72910605,-118.5839869,FALSE,2021-08-16 14:54:28
"647","USGS","364235118345200","ROARING R A RANGER STATION NR CEDAR GROVE CA","ST",36.70966165,-118.582042,FALSE,2021-08-16 14:54:28
"648","USGS","364203118345000","DEADMAN CYN C NR CEDAR GROVE CA","ST",36.70077279,-118.5814864,FALSE,2021-08-16 14:54:28
"649","USGS","364754118344801","COPPER C NR ZUMWALT MEADOWS,CALIF.","ST",36.79827209,-118.5809325,FALSE,2021-08-16 14:54:28
"650","USGS","364153118344701","DEADMAN CYN C NR ROARING R RANGER STA CA","ST",36.697995,-118.580653,FALSE,2021-08-16 14:54:28
"651","USGS","370111118344601","MF KINGS R NR DEVILS WASHBOWL CA","ST",37.01965876,-118.5803807,FALSE,2021-08-16 14:54:28
"652","USGS","364218118343401","ROARING R NR ROARING R RANGER STATION CA","ST",36.7049393,-118.5770419,FALSE,2021-08-16 14:54:28
"653","USGS","362730118343001","EF KAWEAH R BL MOSQUITO C NR MINERAL KING CA","ST",36.4582742,-118.5759263,FALSE,2021-08-16 14:54:28
"654","USGS","370312118342201","PALISADE C NR GROUSE MEADOWS CA","ST",37.053269,-118.5737154,FALSE,2021-08-16 14:54:28
"655","USGS","342530118332501","SANTA CLARA R AB MCBEAN PKWY BRDGE NR SAUGUS CA","ST",34.42499599,-118.557864,FALSE,2021-08-16 14:54:28
"656","USGS","342527118323001","SANTA CLARA R 0.1 MILE BL SAUGUS WRP NR SAUGUS CA","ST",34.42416667,-118.5416667,FALSE,2021-08-16 14:54:28
"657","USGS","364647118321701","SPHINX C NR THE SPHINX,CALIF","ST",36.77966007,-118.5389872,FALSE,2021-08-16 14:54:28
"658","USGS","365035118321501","SF KINGS R IN PARADISE VALLEY,CALIF","ST",36.8429929,-118.5384325,FALSE,2021-08-16 14:54:28
"659","USGS","365338118320901","KID C NR KID PEAK,CALIF.","ST",36.89382585,-118.5367666,FALSE,2021-08-16 14:54:28
"660","USGS","364646118320301","BUBBS C NR THE SPHINX,CALIF.","ST",36.77938219,-118.5350982,FALSE,2021-08-16 14:54:28
"661","USGS","363911118315501","ROARING R NR BIG WET MDW CA","ST",36.65299398,-118.5328736,FALSE,2021-08-16 14:54:28
"662","USGS","343139118314301","SAN FRANCISQUITO C BL SAN FRANCISQUITO PH NO 2 CA","ST",34.5275,-118.528611,FALSE,2021-08-16 14:54:28
"663","USGS","365453118313301","SF KINGS R NR DOUGHERTY PEAK CA","ST",36.9146588,-118.5267668,FALSE,2021-08-16 14:54:28
"664","USGS","343244118305801","SAN FRANCISQUITO C AB SAN FRANCISQUITO PH NO 2","ST",34.54555556,-118.516111,FALSE,2021-08-16 14:54:28
"665","USGS","365202118303701","WOODS C NR PARADISE VALLEY,CALIF","ST",36.8671588,-118.5112103,FALSE,2021-08-16 14:54:28
"666","USGS","363010118302801","BIG ARROYO NR LITTLE FIVE LAKES CA","ST",36.5027164,-118.5087034,FALSE,2021-08-16 14:54:28
"667","USGS","362730118281401","SODA C NR MORAINE LAKE,CALIF","ST",36.458272,-118.4714799,FALSE,2021-08-16 14:54:28
"668","USGS","11092450","LOS ANGELES R A SEPULVEDA DAM CA","ST",34.16167247,-118.466749,FALSE,2021-08-16 14:54:28
"669","USGS","353933118274800","LK ISABELLA A ENGINEER PT NR LK ISABELLA CA","ST",35.6591191,-118.4642522,FALSE,2021-08-16 14:54:28
"670","USGS","365922118264801","SF KINGS R NR CARDINAL LAKE,CALIF","ST",36.98937976,-118.4476004,FALSE,2021-08-16 14:54:28
"671","USGS","354144118263400","NF ARM OF LK ISABELLA A WOFFORD HEIGHTS CA","ST",35.69550747,-118.4436962,FALSE,2021-08-16 14:54:28
"672","USGS","364510118262301","EAST C NR JUNCTION MEADOW CA","ST",36.75271366,-118.4406527,FALSE,2021-08-16 14:54:28
"673","USGS","364511118260901","BUBBS C NR JUNCTION MEADOW,CALIF.","ST",36.75299136,-118.4367638,FALSE,2021-08-16 14:54:28
"674","USGS","365238118260101","WOODS C NR CASTLE DOMES,CALIF","ST",36.8771577,-118.4345433,FALSE,2021-08-16 14:54:28
"675","USGS","365226118255801","SF WOODS C NR CASTLE DOMES,CALIF","ST",36.87382438,-118.4337099,FALSE,2021-08-16 14:54:28
"676","USGS","363820118253101","KERN R NR MILESTONE C CA","ST",36.63882538,-118.4262054,FALSE,2021-08-16 14:54:28
"677","USGS","11187000","KERN R A KERNVILLE CA","ST",35.7543954,-118.4234182,FALSE,2021-08-16 14:54:28
"678","USGS","363455118251301","KERN-KAWEAH R NR JUNCTION MDW CA","ST",36.5818813,-118.4212039,FALSE,2021-08-16 14:54:28
"679","USGS","363616118245801","TYNDALL C NR TYNDALL C PATROL CABIN CA","ST",36.60438107,-118.4170378,FALSE,2021-08-16 14:54:28
"680","USGS","362629118245301","BIG ARROYO NR UP FUNSTON MEADOW,CALIF.","ST",36.44132717,-118.4156454,FALSE,2021-08-16 14:54:28
"681","USGS","362511118245201","RATTLESNAKE C NR KERN R CONFLUENCE,CALIF","ST",36.4196608,-118.4153674,FALSE,2021-08-16 14:54:28
"682","USGS","362317118245201","LAUREL C NR FUNSTON MEADOW CA","ST",36.38799457,-118.415367,FALSE,2021-08-16 14:54:28
"683","USGS","362718118244101","KERN R NR UP FUNSTON MEADOW,CALIF.","ST",36.45493805,-118.4123122,FALSE,2021-08-16 14:54:28
"684","USGS","363438118243901","WALLACE C NR JUNCTION MDW CA","ST",36.577159,-118.4117592,FALSE,2021-08-16 14:54:28
"685","USGS","362102118241501","KERN R A PARK BOUNDARY,CALIF.","ST",36.35049496,-118.4050885,FALSE,2021-08-16 14:54:28
"686","USGS","362852118240901","ROCK C NR CHAGOOPA FALLS,CALIF","ST",36.4810487,-118.4034235,FALSE,2021-08-16 14:54:28
"687","USGS","363310118240101","WHITNEY C NR CRABTREE MDW CA","ST",36.5527146,-118.4012029,FALSE,2021-08-16 14:54:28
"688","USGS","353953118234500","SF ARM OF LK ISABELLA A LIME PT CA","ST",35.66467487,-118.3967501,FALSE,2021-08-16 14:54:28
"689","USGS","342045118215201","PACOIMA CYN C A ANT CYN NR SUNLAND CA","ST",34.3458333,-118.3644444,FALSE,2021-08-16 14:54:28
"690","USGS","362937118200801","SIBERIAN PASS C NR ROCK C PATROL CABIN CA","ST",36.49354777,-118.336478,FALSE,2021-08-16 14:54:28
"691","USGS","362947118193801","ROCK C NR ROCK C PATROL CABIN CA","ST",36.4963254,-118.3281447,FALSE,2021-08-16 14:54:28
"692","USGS","342623118190401","SANTA CLARA R NR AGUA DULCE CA","ST",34.4397222,-118.3177778,FALSE,2021-08-16 14:54:28
"693","USGS","342144118181601","PACOIMA CYN C A NOEL CYN NR SUNLAND CA","ST",34.3622222,-118.3044444,FALSE,2021-08-16 14:54:28
"694","USGS","341732118171101","BIG TUJUNGA C A CAMP FIFTEEN NR SUNLAND CA","ST",34.2922222,-118.2863889,FALSE,2021-08-16 14:54:28
"695","USGS","11208715","CRUNIGEN C BL MINERAL KING HWY NR HAMMOND CA","ST",36.4485476,-118.2725876,FALSE,2021-08-16 14:54:28
"696","USGS","11095500","BIG TUJUNGA C NR SUNLAND CA","ST",34.30055637,-118.2686878,FALSE,2021-08-16 14:54:28
"697","USGS","10277400","OWENS R BL TINEMAHA RE NR BIG PINE CA","ST",37.0529883,-118.2273207,FALSE,2021-08-16 14:54:28
"698","USGS","341705118132401","BIG TUJUNGA C NR BIG TUJUNGA FIRE STA NR SUNLAND","ST",34.28472368,-118.2242416,FALSE,2021-08-16 14:54:28
"699","USGS","11103000","LOS ANGELES R A LONG BEACH CA","ST",33.81723937,-118.2064584,FALSE,2021-08-16 14:54:28
"700","USGS","11103010","LOS ANGELES R AT WILLOW ST BR AT LONG BEACH CA","ST",33.8044618,-118.2050693,FALSE,2021-08-16 14:54:28
"701","USGS","341720118113700","BIG TUJUNGA C NR LA CRESCENTA CA","ST",34.28889019,-118.1945183,FALSE,2021-08-16 14:54:28
"702","USGS","341735118112101","BIG TUJUNGA C BL BIG TUJANGA DAM CA","ST",34.29305556,-118.1891667,FALSE,2021-08-16 14:54:28
"703","USGS","11098000","ARROYO SECO NR PASADENA CA","ST",34.22222629,-118.1775727,FALSE,2021-08-16 14:54:28
"704","USGS","11189500","SF KERN R NR ONYX CA","ST",35.7374516,-118.173689,FALSE,2021-08-16 14:54:28
"705","USGS","342632118084501","ALISO CYN C A RANCH RD NR ACTON CA","ST",34.4422222,-118.1458333,FALSE,2021-08-16 14:54:28
"706","USGS","341838118065201","BIG TUJUNGA C NR HIDDEN SPRINGS CA","ST",34.31055556,-118.1144444,FALSE,2021-08-16 14:54:28
"707","USGS","342505118053701","ALISO CYN C NR ACTON CA","ST",34.41805556,-118.093611,FALSE,2021-08-16 14:54:28
"708","USGS","341448118020001","WF SAN GABRIEL R NR ALTADENA CA","ST",34.24666667,-118.0333333,FALSE,2021-08-16 14:54:28
"709","USGS","10264120","LITTLE ROCK RES NR LITTLEROCK CA","ST",34.48527184,-118.0231248,FALSE,2021-08-16 14:54:28
"710","USGS","342804118011501","LITTLE ROCK BL SANTIAGO CYN C NR LITTLEROCK CA","ST",34.4678333,-118.0208889,FALSE,2021-08-16 14:54:28
"711","USGS","11080880","WF SAN GABRIEL R BL COGSWELL DAM CA","ST",34.24416995,-117.9578424,FALSE,2021-08-16 14:54:28
"712","USGS","341930117561301","DEVILS CYN C NR VALYERMO CA","ST",34.325,-117.9369444,FALSE,2021-08-16 14:54:28
"713","USGS","11078000","SANTA ANA R A SANTA ANA CA","ST",33.75112815,-117.9083906,FALSE,2021-08-16 14:54:28
"714","USGS","341423117530201","WF SAN GABRIEL R AB BEAR C NR CAMP RICON CA","ST",34.2397222,-117.8838889,FALSE,2021-08-16 14:54:28
"715","USGS","342149117523501","LITTLE ROCK C NR WRIGHTWOOD CA","ST",34.3636111,-117.8763889,FALSE,2021-08-16 14:54:28
"716","USGS","342240117495401","TRIB TO SF BIG ROCK C NR VALYERMO CA","ST",34.37777778,-117.8316667,FALSE,2021-08-16 14:54:28
"717","USGS","11075620","SANTA ANA R SPRD DIV BL IMPERIAL HWY NR ANA CA","ST",33.85640444,-117.8008893,FALSE,2021-08-16 14:54:28
"718","USGS","11075610","SANTA ANA R AB SPRD DIV BL IMPERIAL HWY NR ANAHEIM","ST",33.8558489,-117.7975559,FALSE,2021-08-16 14:54:28
"719","USGS","11075600","SANTA ANA R A IMPERIAL HWY NR ANAHEIM CA","ST",33.85640449,-117.7906112,FALSE,2021-08-16 14:54:28
"720","USGS","11080000","EF SAN GABRIEL R A CAMP BONITA CA","ST",34.2305606,-117.768947,FALSE,2021-08-16 14:54:28
"721","USGS","335207117454401","SANTA ANA R A YORBA REG PARK NR YORBA LINDA CA","ST",33.86862659,-117.7631105,FALSE,2021-08-16 14:54:28
"722","USGS","335230117445501","SANTA ANA R A YORBA LINDA BLVD A YORBA LINDA CA","ST",33.8750154,-117.749499,FALSE,2021-08-16 14:54:28
"723","USGS","342117117434001","VINCENT GULCH NR WRIGHTWOOD CA","ST",34.3547222,-117.7277778,FALSE,2021-08-16 14:54:28
"724","USGS","11073360","CHINO C A SCHAEFER AVENUE NR CHINO CA","ST",34.00390144,-117.7270006,FALSE,2021-08-16 14:54:28
"725","USGS","335910117425801","LITTLE CHINO C AB PIPELINE AVE NR LOS SERRANOS CA","ST",33.9861111,-117.716111,FALSE,2021-08-16 14:54:28
"726","USGS","342119117422801","BEAR GULCH NR WRIGHTWOOD CA","ST",34.35527778,-117.7077778,FALSE,2021-08-16 14:54:28
"727","USGS","11073210","RIALTO PIPLNE BL SAN ANTONIO DAM NR CLAREMONT CA","ST",34.1286199,-117.6922779,FALSE,2021-08-16 14:54:28
"728","USGS","335835117412701","CHINO C AB CENTRAL AVE NR LOS SERRANOS CA","ST",33.97638889,-117.6908333,FALSE,2021-08-16 14:54:28
"729","USGS","335227117410201","SANTA ANA R  US FROM COAL CANYON NR YORBA LINDA CA","ST",33.8741822,-117.684775,FALSE,2021-08-16 14:54:28
"730","USGS","335655117395601","CHINO C DS OF PINE AVE AT PRADO DAM CA","ST",33.94862508,-117.6664424,FALSE,2021-08-16 14:54:28
"731","USGS","11074000","SANTA ANA R BL PRADO DAM CA","ST",33.88334875,-117.6453296,FALSE,2021-08-16 14:54:28
"732","USGS","335506117381201","MILL C NR SPLATTERS DUCK CLUB IN PRADO WETLANDS CA","ST",33.9183333,-117.6338889,FALSE,2021-08-16 14:54:28
"733","USGS","11073470","CUCAMONGA C NR UPLAND CA","ST",34.1794521,-117.628943,FALSE,2021-08-16 14:54:28
"734","USGS","335645117365301","MILL C A CHINO CORONA RD NR NORCO CA","ST",33.9458475,-117.6156076,FALSE,2021-08-16 14:54:28
"735","USGS","340127117355901","INLAND EMPIRE RECL WATER OUTFL TO CUCAMONGA C CA","ST",34.02417904,-117.6006082,FALSE,2021-08-16 14:54:28
"736","USGS","340146117355801","CUCAMONGA C BL HWY 60 A ONTARIO CA","ST",34.02945666,-117.6003304,FALSE,2021-08-16 14:54:28
"737","USGS","340041117355701","CUCAMONGA C BL CONFLUENCE A CHINO AV NR ONTARIO CA","ST",34.01063889,-117.5998056,FALSE,2021-08-16 14:54:28
"738","USGS","340042117355901","CUCAMONGA C MAIN CHANNEL A CHINO AVE NR ONTARIO CA","ST",34.01166667,-117.5997222,FALSE,2021-08-16 14:54:28
"739","USGS","340152117355501","W BR CUCAMONGA C BL ELY PERC BASIN A ONTARIO CA","ST",34.03112329,-117.599497,FALSE,2021-08-16 14:54:28
"740","USGS","11073495","CUCAMONGA C NR MIRA LOMA CA","ST",33.9827912,-117.5994966,FALSE,2021-08-16 14:54:28
"741","USGS","11068000","SANTA ANA R A RIVER ROAD NR CORONA CA","ST",33.92251469,-117.5969956,FALSE,2021-08-16 14:54:28
"742","USGS","11046372","SAN MATEO C LAGOON A MOUTH NR SAN CLEMENTE CA","ST",33.38666667,-117.5938889,FALSE,2021-08-16 14:54:28
"743","USGS","335547117353601","SANTA ANA R A POWER LINE RD NR LA SIERRA HEIGHTS","ST",33.9297222,-117.5933333,FALSE,2021-08-16 14:54:28
"744","USGS","11046252","SAN ONOFRE C LAGOON A MOUTH NR SAN CLEMENTE CA","ST",33.38138889,-117.578611,FALSE,2021-08-16 14:54:28
"745","USGS","335645117332601","SANTA ANA R A HAMNER RD AB NORCO CA","ST",33.9458333,-117.5572222,FALSE,2021-08-16 14:54:28
"746","USGS","11067000","DAY C NR ETIWANDA CA","ST",34.18500809,-117.539774,FALSE,2021-08-16 14:54:28
"747","USGS","335728117314101","SANTA ANA R A GRULLA CT A LA SIERRA CA","ST",33.9577919,-117.5289386,FALSE,2021-08-16 14:54:28
"748","USGS","361915117312701","DARWIN WASH A DARWIN FALLS NR DARWIN CA","ST",36.32075,-117.5240278,FALSE,2021-08-16 14:54:28
"749","USGS","335815117303901","SANTA ANA R A MIRA LOMA CA","ST",33.97084727,-117.5117161,FALSE,2021-08-16 14:54:28
"750","USGS","335809117301001","SANTA ANA R N OF HIDDEN VALLEY WETLANDS CA","ST",33.96916667,-117.5027778,FALSE,2021-08-16 14:54:28
"751","USGS","335746117282101","SANTA ANA R DS OF VAN BUREN BLVD A RIVERSIDE CA","ST",33.96279218,-117.4733814,FALSE,2021-08-16 14:54:28
"752","USGS","335743117280501","HOLE LAKE DISCHARGE ABV SANTA ANA R NR PEDLEY CA","ST",33.96194444,-117.4680556,FALSE,2021-08-16 14:54:28
"753","USGS","11063510","CAJON C BL LONE PINE C NR KEENBROOK CA","ST",34.2633392,-117.4669944,FALSE,2021-08-16 14:54:28
"754","USGS","335748117275601","RIVERSIDE WQC PLANT A VAN BUREN BLVD NR RIVERSIDE","ST",33.9633333,-117.4655556,FALSE,2021-08-16 14:54:28
"755","USGS","11046102","LAS FLORES C LAGOON A MOUTH NR OCEANSIDE CA","ST",33.29055556,-117.465,FALSE,2021-08-16 14:54:28
"756","USGS","11062000","LYTLE C NR FONTANA CA","ST",34.2122298,-117.458105,FALSE,2021-08-16 14:54:28
"757","USGS","11066480","RIVERSIDE WATER QUALITY CONTROL PLANT CA","ST",33.96473675,-117.4581031,FALSE,2021-08-16 14:54:28
"758","USGS","11046082","HIDDEN C LAGOON A MOUTH NR OCEANSIDE CA","ST",33.27527778,-117.4513889,FALSE,2021-08-16 14:54:28
"759","USGS","11066460","SANTA ANA R A MWD CROSSING CA","ST",33.96862566,-117.4483806,FALSE,2021-08-16 14:54:28
"760","USGS","11046072","ALISO C LAGOON A MOUTH NR OCEANSIDE CA","ST",33.26444444,-117.4422222,FALSE,2021-08-16 14:54:28
"761","USGS","335806117260501","SANTA ANA R AB MWD CROSSING CA","ST",33.9683333,-117.4347222,FALSE,2021-08-16 14:54:28
"762","USGS","341121117255901","LYTLE C A DEVORE AVE CA","ST",34.18917498,-117.4339374,FALSE,2021-08-16 14:54:28
"763","USGS","11046062","COCKLEBURR C LAGOON A MOUTH NR OCEANSIDE CA","ST",33.25055556,-117.4313889,FALSE,2021-08-16 14:54:28
"764","USGS","335804117255201","TESUESQUITO C NR MOUTH A RIVERSIDE CA","ST",33.96777778,-117.431111,FALSE,2021-08-16 14:54:28
"765","USGS","335827117253801","SUNNYSLOPE CHANNEL A SANTA ANA RRP NR RUBIDOUX CA","ST",33.97416667,-117.4272222,FALSE,2021-08-16 14:54:28
"766","USGS","335835117253401","SUNNYSLOPE CHANNEL NR RIBIDOUX NC AT SANTA ANA RRP","ST",33.97638889,-117.426111,FALSE,2021-08-16 14:54:28
"767","USGS","340920117235401","DISCHARGE PIPE AT LINDEN PONDS","ST",34.155565,-117.3992138,FALSE,2021-08-16 14:54:28
"768","USGS","11066440","SANTA ANA R A MISSION BLVD A RIVERSIDE CA","ST",33.99068889,-117.394925,FALSE,2021-08-16 14:54:28
"769","USGS","335426117232701","LAKE EVANS OUTFLOW AT RIVERSIDE CA","ST",33.99055556,-117.3908333,FALSE,2021-08-16 14:54:28
"770","USGS","365746117220301","MESQUITE SPRING NR SCOTTYS CASTLE","ST",36.96277778,-117.3675,FALSE,2021-08-16 14:54:28
"771","USGS","340132117214401","SANTA ANA R A RIVERSIDE RD NR RIVERSIDE CA","ST",34.02556957,-117.3631005,FALSE,2021-08-16 14:54:28
"772","USGS","11042000","SAN LUIS REY R A OCEANSIDE CA","ST",33.21809119,-117.3603162,FALSE,2021-08-16 14:54:28
"773","USGS","343812117212201","MOJAVE R 5.9 MI DS OF L NARROWS BR NR LA DELTA CA","ST",34.63665727,-117.356992,FALSE,2021-08-16 14:54:28
"774","USGS","344029117211901","MOJAVE R AT PALISADES RANCH CA","ST",34.6747113,-117.356159,FALSE,2021-08-16 14:54:28
"775","USGS","344135117211801","MOJAVE R 3.4 MI US HARPER LAKE RD NR BRYMAN CA","ST",34.6930439,-117.3558815,FALSE,2021-08-16 14:54:28
"776","USGS","344036117211701","MOJAVE R A BRYMAN CA","ST",34.67665567,-117.3556035,FALSE,2021-08-16 14:54:28
"777","USGS","343747117211701","MOJAVE R 5.5 MI DS OF L NARROWS BR NR LA DELTA CA","ST",34.6297131,-117.355603,FALSE,2021-08-16 14:54:28
"778","USGS","343703117211401","VICTORVILLE WW REC OUTFLOW NR ORO GRANDE CA","ST",34.61749139,-117.3547697,FALSE,2021-08-16 14:54:28
"779","USGS","343732117211101","MOJAVE R 5.2 MI DS OF L NARROWS BR NR LA DELTA CA","ST",34.62554663,-117.3539364,FALSE,2021-08-16 14:54:28
"780","USGS","340217117211401","SANTA ANA R DS CONFLUENCE OF RIX OUTFLOW CA","ST",34.03805556,-117.3538889,FALSE,2021-08-16 14:54:28
"781","USGS","340236117210601","SANTA ANA R A LA LOMA HILLS NR GRAND TERRACE CA","ST",34.0433468,-117.3525447,FALSE,2021-08-16 14:54:28
"782","USGS","343651117210301","MOJAVE R 3.8 MI DS L NARROWS BR NR ORO GRANDE CA","ST",34.6141582,-117.351714,FALSE,2021-08-16 14:54:28
"783","USGS","343552117204501","MOJAVE R A ORO GRANDE CA","ST",34.59777006,-117.3467137,FALSE,2021-08-16 14:54:28
"784","USGS","343452117201301","MOJAVE R NR MOJAVE HEIGHTS CA","ST",34.58110417,-117.3378245,FALSE,2021-08-16 14:54:28
"785","USGS","11063680","DEVIL CYN C NR SAN BERNARDINO CA","ST",34.20834107,-117.331434,FALSE,2021-08-16 14:54:28
"786","USGS","341047117194301","CALIFORNIA AQUEDUCT DEVILS CYN AFTERBAY NR MUSCOY","ST",34.1797222,-117.328611,FALSE,2021-08-16 14:54:28
"787","USGS","10261500","MOJAVE R A LO NARROWS NR VICTORVILLE CA","ST",34.57304916,-117.3206018,FALSE,2021-08-16 14:54:28
"788","USGS","342008117181301","CALIFORNIA AQUEDUCT CK 66 AB MOJAVE R FORKS RES","ST",34.33555556,-117.303611,FALSE,2021-08-16 14:54:28
"789","USGS","11060400","WARM C NR SAN BERNARDINO CA","ST",34.07834596,-117.3003209,FALSE,2021-08-16 14:54:28
"790","USGS","11059300","SANTA ANA R A E ST NR SAN BERNARDINO CA","ST",34.0650131,-117.3003208,FALSE,2021-08-16 14:54:28
"791","USGS","330232117174801","ESCONDIDO C CA - SITE A","ST",33.04226426,-117.2975375,FALSE,2021-08-16 14:54:28
"792","USGS","340455117173801","WARM C ABV E ST NR SAN BERNARDINO CA","ST",34.08194444,-117.2938889,FALSE,2021-08-16 14:54:28
"793","USGS","343257117173401","MOJAVE R 1.1 MI DS OF U NARROWS BR NR VICTORVILLE","ST",34.5491616,-117.2936566,FALSE,2021-08-16 14:54:28
"794","USGS","340552117172701","WARM C AB ORANGE SHOW GROUNDS NR SAN BERNARDINO CA","ST",34.09777778,-117.2908333,FALSE,2021-08-16 14:54:28
"795","USGS","343202117171301","MOJAVE R A UPPER NARROWS BR A VICTORVILLE CA","ST",34.53388458,-117.287823,FALSE,2021-08-16 14:54:28
"796","USGS","10261480","MOJAVE R A UPPER NARROWS A VICTORVILLE CA","ST",34.53305129,-117.2869897,FALSE,2021-08-16 14:54:28
"797","USGS","343154117170401","MOJAVE R A UP NARROWS CA","ST",34.53166249,-117.285323,FALSE,2021-08-16 14:54:28
"798","USGS","11059000","WARM C FLOODWAY A SAN BERNARDINO CA","ST",34.09584545,-117.2758757,FALSE,2021-08-16 14:54:28
"799","USGS","11058500","E TWIN C NR ARROWHEAD SPRINGS CA","ST",34.17917556,-117.2655982,FALSE,2021-08-16 14:54:28
"800","USGS","340955117154401","EAST TWIN CREEK AB 40TH ST A SAN BERNARDINO CA","ST",34.1652872,-117.263098,FALSE,2021-08-16 14:54:28
"801","USGS","11044500","SANTA MARGARITA R NR FALLBROOK,CALIF.","ST",33.39836319,-117.2630914,FALSE,2021-08-16 14:54:28
"802","USGS","343049117154301","MOJAVE R 1.1 MI US U NARROWS BR NR VICTORVILLE CA","ST",34.51360804,-117.2628225,FALSE,2021-08-16 14:54:28
"803","USGS","10260950","WF MOJAVE R AB MOJAVE R FORKS RES NR HESPERIA CA","ST",34.33889196,-117.2578213,FALSE,2021-08-16 14:54:28
"804","USGS","11041000","SAN LUIS REY R NR BONSALL CA","ST",33.25364594,-117.2475354,FALSE,2021-08-16 14:54:28
"805","USGS","10261100","MOJAVE R BL FORKS RES NR HESPERIA CA","ST",34.34583624,-117.2380986,FALSE,2021-08-16 14:54:28
"806","USGS","10260500","DEEP C NR HESPERIA CA","ST",34.34305858,-117.2264316,FALSE,2021-08-16 14:54:28
"807","USGS","331700117130801","MOOSA C NR SAN LUIS REY DOWNS GOLF COURSE CA","ST",33.28336728,-117.2197568,FALSE,2021-08-16 14:54:28
"808","USGS","341531117130901","GRASS VALLEY C AB GRASS VLY LK NR LK ARROWHEAD CA","ST",34.2586111,-117.2191667,FALSE,2021-08-16 14:54:28
"809","USGS","330302117125101","ESCONDIDO C CA - SITE B","ST",33.05059776,-117.2150354,FALSE,2021-08-16 14:54:28
"810","USGS","10262000","MOJAVE R NR HODGE CA","ST",34.83581727,-117.1917113,FALSE,2021-08-16 14:54:28
"811","USGS","341112117103801","EF CITY C NR RUNNING SPRINGS CA","ST",34.18666667,-117.1772222,FALSE,2021-08-16 14:54:28
"812","USGS","11023000","SAN DIEGO R A FASHION VALLEY AT SAN DIEGO CA","ST",32.76504998,-117.1686449,FALSE,2021-08-16 14:54:28
"813","USGS","330227117092301","SAN DIEGUITO R CA","ST",33.04087605,-117.1572564,FALSE,2021-08-16 14:54:28
"814","USGS","331515117091001","MOOSA C A CHAMPAGNE RD. CA","ST",33.25420179,-117.153644,FALSE,2021-08-16 14:54:28
"815","USGS","11043000","MURRIETA C A TEMECULA CA","ST",33.47975066,-117.1439203,FALSE,2021-08-16 14:54:28
"816","USGS","340548117083101","SANTA ANA R BL CONE CAMP AB REDLANDS CA","ST",34.0966787,-117.1428148,FALSE,2021-08-16 14:54:28
