"","agency_cd","site_no","station_nm","site_tp_cd","dec_lat_va","dec_long_va","colocated","queryTime"
"1","USGS","11468500","NOYO R NR FORT BRAGG CA","ST",39.42822378,-123.7377917,FALSE,2021-08-20 13:28:01
"2","USGS","11467750","GREENWOOD C A ELK CA","ST",39.1279585,-123.7100155,FALSE,2021-08-20 13:28:01
"3","USGS","11467710","ELK C A HWY 1 NR ELK CA","ST",39.10212588,-123.7016826,FALSE,2021-08-20 13:28:01
"4","USGS","11468100","BIG R NR MENDOCINO CA","ST",39.31322854,-123.6883459,FALSE,2021-08-20 13:28:01
"5","USGS","11468000","NAVARRO R NR NAVARRO CA","ST",39.17045608,-123.668069,FALSE,2021-08-20 13:28:01
"6","USGS","11467990","NF NAVARRO R NR NAVARRO CA","ST",39.15656697,-123.6386243,FALSE,2021-08-20 13:28:01
"7","USGS","11467600","GARCIA R NR POINT ARENA CA","ST",38.92629636,-123.6302925,FALSE,2021-08-20 13:28:01
"8","USGS","11467555","NF GUALALA R A MOUTH NR GUALALA CA","ST",38.77963288,-123.5000087,FALSE,2021-08-20 13:28:01
"9","USGS","11467230","FORT ROSS C A FORT ROSS CA","ST",38.51769065,-123.2416741,FALSE,2021-08-20 13:28:01
"10","USGS","11461000","RUSSIAN R NR UKIAH CA","ST",39.1954471,-123.1950048,FALSE,2021-08-20 13:28:01
"11","USGS","11462000","EF RUSSIAN R NR UKIAH CA","ST",39.1973914,-123.1875046,FALSE,2021-08-20 13:28:01
"12","USGS","11462050","RUSSIAN R A UKIAH CA","ST",39.13406009,-123.1863936,FALSE,2021-08-20 13:28:01
"13","USGS","11462500","RUSSIAN R NR HOPLAND CA","ST",39.02656314,-123.1305588,FALSE,2021-08-20 13:28:01
"14","USGS","11461500","EF RUSSIAN R NR CALPELLA CA","ST",39.24655605,-123.1302806,FALSE,2021-08-20 13:28:01
"15","USGS","11471500","EEL R A VAN ARSDALE DAM NR POTTER VALLEY CA","ST",39.38849566,-123.1161157,FALSE,2021-08-20 13:28:01
"16","USGS","382659123065001","JENNER GULCH A JENNER CA","ST",38.4497222,-123.1138889,FALSE,2021-08-20 13:28:01
"17","USGS","11462690","RUSSIAN R A HOPLAND CA","ST",38.9715653,-123.1066693,FALSE,2021-08-20 13:28:01
"18","USGS","382605123060701","RUSSIAN R NR JENNER CA","ST",38.4347222,-123.1019444,FALSE,2021-08-20 13:28:01
"19","USGS","382624123054401","WILLOW C MARSH NR JENNER CA","ST",38.44,-123.0955556,FALSE,2021-08-20 13:28:01
"20","USGS","382658123054101","SHEEPHOUSE C NR JENNER CA","ST",38.44944444,-123.0947222,FALSE,2021-08-20 13:28:01
"21","USGS","382551123041101","WILLOW C 1.8 MI US RUSSIAN R NR JENNER CA","ST",38.4308333,-123.0697222,FALSE,2021-08-20 13:28:01
"22","USGS","11463000","RUSSIAN R NR CLOVERDALE CA","ST",38.8793475,-123.0536124,FALSE,2021-08-20 13:28:01
"23","USGS","382754123030501","RUSSIAN R A CASINI RANCH NR DUNCANS MILLS CA","ST",38.465,-123.0513889,FALSE,2021-08-20 13:28:01
"24","USGS","11467210","RUSSIAN R A DUNCANS MILLS CA","ST",38.45352525,-123.0494456,FALSE,2021-08-20 13:28:01
"25","USGS","382701123025801","FREEZEOUT C NR DUNCANS MILLS CA","ST",38.45027778,-123.0494444,FALSE,2021-08-20 13:28:01
"26","USGS","382815123024601","AUSTIN C NR DUNCANS MILLS CA","ST",38.4708333,-123.046111,FALSE,2021-08-20 13:28:01
"27","USGS","384346123021701","DRY C NR ASTI CA","ST",38.72935447,-123.039168,FALSE,2021-08-20 13:28:01
"28","USGS","384142123013901","WARM SPRINGS C AB LK WARM SPRINGS C A SKAGGS CA","ST",38.69491047,-123.028612,FALSE,2021-08-20 13:28:01
"29","USGS","384141123013401","L WARM SPRINGS C A SKAGGS SPRINGS CA","ST",38.69463269,-123.027223,FALSE,2021-08-20 13:28:01
"30","USGS","384142123013401","LITTLE WARM SPRINGS C A SKAGGS SPRINGS CA","ST",38.69491046,-123.027223,FALSE,2021-08-20 13:28:01
"31","USGS","11467006","RUSSIAN R A VACATION BEACH CA","ST",38.48408015,-123.0124997,FALSE,2021-08-20 13:28:01
"32","USGS","11463150","RUSSIAN R A PRESTON CA","ST",38.83212758,-123.0116669,FALSE,2021-08-20 13:28:01
"33","USGS","382757123003801","RUSSIAN R A MONTE RIO CA","ST",38.4658333,-123.0105556,FALSE,2021-08-20 13:28:01
"34","USGS","382752123003401","DUTCH BILL C A MONTE RIO CA","ST",38.46444444,-123.0094444,FALSE,2021-08-20 13:28:01
"35","USGS","382944123002901","HULBERT C NR GUERNEVILLE CA","ST",38.49555556,-123.0080556,FALSE,2021-08-20 13:28:01
"36","USGS","11463210","BIG SULPHUR C A MOUTH NR CLOVERDALE CA","ST",38.82296136,-123.0044444,FALSE,2021-08-20 13:28:01
"37","USGS","383006123000601","FIFE C A GUERNEVILLE CA","ST",38.50166667,-123.0016667,FALSE,2021-08-20 13:28:01
"38","USGS","11467002","RUSSIAN R A JOHNSONS BEACH A GUERNEVILLE CA","ST",38.49935758,-122.9983325,FALSE,2021-08-20 13:28:01
"39","USGS","11463200","BIG SULPHUR C NR CLOVERDALE CA","ST",38.8260167,-122.9969442,FALSE,2021-08-20 13:28:01
"40","USGS","382955122594101","POCKET CYN C A GUERNEVILLE CA","ST",38.4986111,-122.9947222,FALSE,2021-08-20 13:28:01
"41","USGS","11448750","SF SCOTTS C NR LAKEPORT CA","ST",39.04027778,-122.9833056,FALSE,2021-08-20 13:28:01
"42","USGS","11470500","EEL R BL SCOTT DAM NR POTTER VALLEY CA","ST",39.40793878,-122.9713896,FALSE,2021-08-20 13:28:01
"43","USGS","11463400","RUSSIAN R A ASTI CA","ST",38.7632419,-122.9672212,FALSE,2021-08-20 13:28:01
"44","USGS","390236122575901","SCOTTS C A SCOTTS C ROAD NR LAKEPORT CA","ST",39.0433333,-122.9663889,FALSE,2021-08-20 13:28:01
"45","USGS","383012122574501","RUSSIAN R A ODD FELLOWS PARK NR RIO NIDO CA","ST",38.5033333,-122.9625,FALSE,2021-08-20 13:28:01
"46","USGS","11465200","DRY C NR GEYSERVILLE CA","ST",38.698521,-122.9580539,FALSE,2021-08-20 13:28:01
"47","USGS","11467000","RUSSIAN R A HACIENDA BRIDGE NR GUERNEVILLE CA","ST",38.50852336,-122.9277737,FALSE,2021-08-20 13:28:01
"48","USGS","383009122543001","GREEN VALLEY C NR MIRABEL HEIGHTS CA","ST",38.5025,-122.9083333,FALSE,2021-08-20 13:28:01
"49","USGS","382959122535601","RUSSIAN R A STEELHEAD BEACH NR RIO DELL CA","ST",38.4997222,-122.8988889,FALSE,2021-08-20 13:28:01
"50","USGS","11466850","RUSSIAN R A MIRABEL HEIGHTS CA","ST",38.49546769,-122.8963833,FALSE,2021-08-20 13:28:01
"51","USGS","11463500","RUSSIAN R A GEYSERVILLE CA","ST",38.71268685,-122.8958295,FALSE,2021-08-20 13:28:01
"52","USGS","382619122531401","GREEN VALLEY C A GRATON CA","ST",38.4387,-122.887111,FALSE,2021-08-20 13:28:01
"53","USGS","11465400","RUSSIAN R A WOHLER BRIDGE CA","ST",38.5079673,-122.8830494,FALSE,2021-08-20 13:28:01
"54","USGS","382346122521201","UNNAMED TRIB A MONTGOMERY RD NR SEBASTOPOL CA","ST",38.396125,-122.8700389,FALSE,2021-08-20 13:28:01
"55","USGS","383132122514901","RUSSIAN R A RIVER FRONT PARK NR WINDSOR CA","ST",38.52555556,-122.863611,FALSE,2021-08-20 13:28:01
"56","USGS","11465350","DRY C NR MOUTH NR HEALDSBURG CA","ST",38.58741046,-122.8622159,FALSE,2021-08-20 13:28:01
"57","USGS","383502122512801","RUSSIAN R BL DRY C NR HEALDSBURG CA","ST",38.58388889,-122.8577778,FALSE,2021-08-20 13:28:01
"58","USGS","11464010","RUSSIAN R A HEALDSBURG CA","ST",38.59824359,-122.8574936,FALSE,2021-08-20 13:28:01
"59","USGS","11463980","RUSSIAN R A DIGGER BEND NR HEALDSBURG CA","ST",38.6329653,-122.8555494,FALSE,2021-08-20 13:28:01
"60","USGS","11466800","MARK WEST C NR MIRABEL HEIGHTS CA","ST",38.49407838,-122.8533258,FALSE,2021-08-20 13:28:01
"61","USGS","11449500","KELSEY C NR KELSEYVILLE CA","ST",38.92739984,-122.8436046,FALSE,2021-08-20 13:28:01
"62","USGS","383039122502401","WINDSOR C A MARK WEST STATION RD NR WINDSOR CA","ST",38.51092778,-122.8401083,FALSE,2021-08-20 13:28:01
"63","USGS","11464000","RUSSIAN R NR HEALDSBURG CA","ST",38.61324316,-122.8363818,FALSE,2021-08-20 13:28:01
"64","USGS","11463680","RUSSIAN R A ALEXANDER VALLEY RD BR CA","ST",38.65935358,-122.8299932,FALSE,2021-08-20 13:28:01
"65","USGS","11466320","SANTA ROSA C A WILLOWSIDE RD NR SANTA ROSA CA","ST",38.44519026,-122.8072129,FALSE,2021-08-20 13:28:01
"66","USGS","380230122471901","OLEMA C A BEAR VALLEY RD BR NR OLEMA CA","ST",38.0415899,-122.7897127,FALSE,2021-08-20 13:28:01
"67","USGS","11460610","OLEMA C A OLEMA CA","ST",38.04020106,-122.7888793,FALSE,2021-08-20 13:28:01
"68","USGS","11460600","LAGUNITAS C NR PT REYES STATION CA","ST",38.08019988,-122.7844348,FALSE,2021-08-20 13:28:01
"69","USGS","383719122462501","MAACAMA C A CHALK HILL RD BR NR HEALDSBURG CA","ST",38.6219583,-122.7736889,FALSE,2021-08-20 13:28:01
"70","USGS","11463160","BIG SULPHUR C NR MIDDLETOWN CA","ST",38.76351754,-122.74638,FALSE,2021-08-20 13:28:01
"71","USGS","11465690","COLGAN C NR SANTA ROSA CA","ST",38.40213524,-122.7330434,FALSE,2021-08-20 13:28:01
"72","USGS","11466200","SANTA ROSA C A SANTA ROSA CA","ST",38.4365787,-122.7247096,FALSE,2021-08-20 13:28:01
"73","USGS","11466170","MATANZAS C A SANTA ROSA CA","ST",38.4388007,-122.7024867,FALSE,2021-08-20 13:28:01
"74","USGS","11465660","COPELAND C A ROHNERT PARK CA","ST",38.34324776,-122.7019317,FALSE,2021-08-20 13:28:01
"75","USGS","11460170","PINE C A BOLINAS CA","ST",37.9185367,-122.6930404,FALSE,2021-08-20 13:28:01
"76","USGS","11453170","DRY C AB APPLETREE C NR MIDDLETOWN CA","ST",38.74018387,-122.6891552,FALSE,2021-08-20 13:28:01
"77","USGS","381740122395901","LICHAU C A PENNGROVE CA","ST",38.29448056,-122.666361,FALSE,2021-08-20 13:28:01
"78","USGS","11459000","PETALUMA R A PETALUMA CA","ST",38.2610275,-122.6608199,FALSE,2021-08-20 13:28:01
"79","USGS","381519122385601","PETALUMA R NR PETALUMA CA","ST",38.2552972,-122.649,FALSE,2021-08-20 13:28:01
"80","USGS","11459150","PETALUMA R A COPLAND PUMPING STATION A PETALUMA CA","ST",38.2382502,-122.6402637,FALSE,2021-08-20 13:28:01
"81","USGS","11460158","TABLE ROCK C A STINSON BCH CA","ST",37.89853719,-122.6374815,FALSE,2021-08-20 13:28:01
"82","USGS","11460156","WEBB C NR STINSON BEACH CA","ST",37.88687085,-122.6263696,FALSE,2021-08-20 13:28:01
"83","USGS","11455865","BLOSSOM C NR CALISTOGA CA","ST",38.59324107,-122.614151,FALSE,2021-08-20 13:28:01
"84","USGS","383109122363301","MARK WEST C A TARWATER RD NR CALISTOGA CA","ST",38.5190472,-122.6092222,FALSE,2021-08-20 13:28:01
"85","USGS","11455850","NAPA R A TUBBS LN NR CALISTOGA CA","ST",38.60074074,-122.598595,FALSE,2021-08-20 13:28:01
"86","USGS","11455860","NAPA R A GREENWOOD AVE NR CALISTOGA CA","ST",38.58935209,-122.5977616,FALSE,2021-08-20 13:28:01
"87","USGS","11455890","CYRUS C AT CALISTOGA CA","ST",38.5807411,-122.5949837,FALSE,2021-08-20 13:28:01
"88","USGS","11455880","GARNETT C NR CALISTOGA CA","ST",38.5932408,-122.5916503,FALSE,2021-08-20 13:28:01
"89","USGS","380345122345201","ARROYO SAN JOSE A FAIRWAY DR NR NOVATO CA","ST",38.0623972,-122.581,FALSE,2021-08-20 13:28:01
"90","USGS","11459500","NOVATO C A NOVATO CA","ST",38.10769775,-122.5799815,FALSE,2021-08-20 13:28:01
"91","USGS","11455900","NAPA R AT CALISTOGA CA","ST",38.57712994,-122.578872,FALSE,2021-08-20 13:28:01
"92","USGS","375159122343801","REDWOOD C A BIG LAGOON BR NR MUIR BEACH CA","ST",37.86631588,-122.578311,FALSE,2021-08-20 13:28:01
"93","USGS","11460152","REDWOOD C A MUIR BCH NR TAMALPAIS VALLEY CA","ST",37.86298265,-122.5752553,FALSE,2021-08-20 13:28:01
"94","USGS","11460154","GREEN GULCH A MUIR BCH NR TAMALPAIS VALLEY CA","ST",37.86298265,-122.5713661,FALSE,2021-08-20 13:28:01
"95","USGS","11451500","NF CACHE C NR LOWER LAKE CA","ST",39.0190618,-122.56887,FALSE,2021-08-20 13:28:01
"96","USGS","11460140","REDWOOD C BL MUIR WOODS NR MILL VALLEY CA","ST",37.8893707,-122.5671996,FALSE,2021-08-20 13:28:01
"97","USGS","11451000","CACHE C NR LOWER LAKE CA","ST",38.9240648,-122.5658147,FALSE,2021-08-20 13:28:01
"98","USGS","11460000","CORTE MADERA C A ROSS CA","ST",37.96297947,-122.556922,FALSE,2021-08-20 13:28:01
"99","USGS","382403122331101","SONOMA C A LAWNDALE RD NR KENWOOD CA","ST",38.4008333,-122.5530556,FALSE,2021-08-20 13:28:01
"100","USGS","382414122330701","SONOMA C A KENWOOD CA","ST",38.40388889,-122.5519444,FALSE,2021-08-20 13:28:01
"101","USGS","11460130","TENNESSEE VALLEY C NR TAMALPAIS VALLEY CA","ST",37.84770535,-122.5446977,FALSE,2021-08-20 13:28:01
"102","USGS","374956122322201","UNNAMED TRIB A RODEO COVE NR SAUSALITO CA","ST",37.83231667,-122.5395667,FALSE,2021-08-20 13:28:01
"103","USGS","390457122321102","INDIAN VALLEY RES A DAM CA","ST",39.082393,-122.5374813,FALSE,2021-08-20 13:28:01
"104","USGS","11460120","RODEO LAGOON A FORT CRONKHITE NR SAUSALITO CA","ST",37.8310392,-122.5363637,FALSE,2021-08-20 13:28:01
"105","USGS","374955122321101","STORM DR A MITCHELL RD FOOTBRIDGE NR SAUSALITO CA","ST",37.8318722,-122.5363444,FALSE,2021-08-20 13:28:01
"106","USGS","11451300","NF CACHE C NR CLEARLAKE OAKS CA","ST",39.07544877,-122.5341477,FALSE,2021-08-20 13:28:01
"107","USGS","374954122320001","STORM DRAIN A MITCHELL RD NR SAUSALITO CA","ST",37.8318,-122.5333556,FALSE,2021-08-20 13:28:01
"108","USGS","380410122315501","ARROYO SAN JOSE A DIGITAL DR NR NOVATO CA","ST",38.0694972,-122.5319972,FALSE,2021-08-20 13:28:01
"109","USGS","382634122315201","SONOMA C A ADOBE CYN RD NR KENWOOD CA","ST",38.4427,-122.531,FALSE,2021-08-20 13:28:01
"110","USGS","374955122313301","RODEO POND WEIR NR SAUSALITO CA","ST",37.83200556,-122.5259389,FALSE,2021-08-20 13:28:01
"111","USGS","11460110","GERBODE VALLEY C NR SAUSALITO CA","ST",37.8329836,-122.5227518,FALSE,2021-08-20 13:28:01
"112","USGS","383305122311901","RITCHEY C NR DEER PARK CA","ST",38.5514,-122.522,FALSE,2021-08-20 13:28:01
"113","USGS","375007122310701","GERBODE VALLEY C A MIWOK TRAIL NR SAUSALITO CA","ST",37.8352,-122.5186667,FALSE,2021-08-20 13:28:01
"114","USGS","11453500","PUTAH C NR GUENOC CA","ST",38.77879078,-122.5174807,FALSE,2021-08-20 13:28:01
"115","USGS","374958122304601","RODEO C A RODEO VALLEY TRAIL NR SAUSALITO CA","ST",37.8326833,-122.5127,FALSE,2021-08-20 13:28:01
"116","USGS","383321122302101","NAPA R A BALE LN NR DEER PARK CA","ST",38.5559,-122.506,FALSE,2021-08-20 13:28:01
"117","USGS","11162655","SAN PEDRO C A PACIFICA","ST",37.59160417,-122.5030317,FALSE,2021-08-20 13:28:01
"118","USGS","375019122295601","UNNAMED TRIB A LAMORAUX DR NR SAUSALITO CA","ST",37.83856667,-122.49895,FALSE,2021-08-20 13:28:01
"119","USGS","375032122294301","RODEO C A TUNNEL NR SAUSALITO CA","ST",37.84235,-122.4952667,FALSE,2021-08-20 13:28:01
"120","USGS","11458500","SONOMA C A AGUA CALIENTE CA","ST",38.32324705,-122.4944258,FALSE,2021-08-20 13:28:01
"121","USGS","374715122285601","LOBOS C CA","ST",37.78742948,-122.4833053,FALSE,2021-08-20 13:28:01
"122","USGS","11455940","NAPA R A DEER PARK RD NR ST HELENA CA","ST",38.52296387,-122.4794246,FALSE,2021-08-20 13:28:01
"123","USGS","381556122280201","SONOMA C A WATMAUGH RD BR NR SONOMA CA","ST",38.2657972,-122.4673972,FALSE,2021-08-20 13:28:01
"124","USGS","11456000","NAPA R NR ST HELENA CA","ST",38.51129745,-122.455813,FALSE,2021-08-20 13:28:01
"125","USGS","11451540","HARLEY GULCH NR WILBUR SPRINGS CA","ST",39.00906186,-122.4355324,FALSE,2021-08-20 13:28:01
"126","USGS","11162720","COLMA C A SOUTH SAN FRANCISCO CA","ST",37.65382296,-122.4263613,FALSE,2021-08-20 13:28:01
"127","USGS","11451690","SULPHUR C A WILBUR SPRINGS CA","ST",39.0385054,-122.4191439,FALSE,2021-08-20 13:28:01
"128","USGS","11453550","HUNTING C NR KNOXVILLE CA","ST",38.77156869,-122.408312,FALSE,2021-08-20 13:28:01
"129","USGS","11453555","PUTAH C AB LK BERRYESSA CA","ST",38.70407047,-122.3816452,FALSE,2021-08-20 13:28:01
"130","USGS","11456500","CONN C NR OAKVILLE CA","ST",38.44727778,-122.3805556,FALSE,2021-08-20 13:28:01
"131","USGS","11162600","PURISIMA C NR HALF MOON BAY CA","ST",37.43494048,-122.3741392,FALSE,2021-08-20 13:28:01
"132","USGS","11453590","POPE C A WALTER SPRINGS CA","ST",38.6469722,-122.365825,FALSE,2021-08-20 13:28:01
"133","USGS","11451600","DAVIS C A DAM NR KNOXVILLE CA","ST",38.8640661,-122.3541436,FALSE,2021-08-20 13:28:01
"134","USGS","383653122204601","MAXWELL C NR POPE VALLEY CA","ST",38.61460278,-122.3459917,FALSE,2021-08-20 13:28:01
"135","USGS","375457122203501","UNNAMED C A RICHMOND INDUSTRIAL SITE CA","ST",37.9157582,-122.3441373,FALSE,2021-08-20 13:28:01
"136","USGS","11451715","BEAR C AB HOLSTEN CHIMNEY CYN NR RUMSEY CA","ST",38.95767446,-122.3427535,FALSE,2021-08-20 13:28:01
"137","USGS","11453600","POPE C NR POPE VALLEY CA","ST",38.62990556,-122.3321998,FALSE,2021-08-20 13:28:01
"138","USGS","375746122195501","SAN PABLO C A EL PORTAL DR A SAN PABLO CA","ST",37.9628,-122.3319972,FALSE,2021-08-20 13:28:01
"139","USGS","11162500","PESCADERO C NR PESCADERO CA","ST",37.26077707,-122.3288602,FALSE,2021-08-20 13:28:01
"140","USGS","11458300","NAPA C A NAPA","ST",38.3018588,-122.3038634,FALSE,2021-08-20 13:28:01
"141","USGS","11458000","NAPA R NR NAPA CA","ST",38.3682457,-122.3033085,FALSE,2021-08-20 13:28:01
"142","USGS","11453570","ADAMS C NR KNOXVILLE CA","ST",38.70462615,-122.2966438,FALSE,2021-08-20 13:28:01
"143","USGS","11453580","NEVADA C NR KNOXVILLE CA","ST",38.71157045,-122.2930327,FALSE,2021-08-20 13:28:01
"144","USGS","11458050","NAPA R A NAPA","ST",38.32491366,-122.2924743,FALSE,2021-08-20 13:28:01
"145","USGS","375808122172601","WILKIE C A SANTA RITA RD NR RICHMOND CA","ST",37.96884167,-122.2905528,FALSE,2021-08-20 13:28:01
"146","USGS","11458310","NAPA R A THIRD ST AT NAPA CA","ST",38.2982478,-122.2838626,FALSE,2021-08-20 13:28:01
"147","USGS","11451760","CACHE C AB RUMSEY CA","ST",38.9129536,-122.2716419,FALSE,2021-08-20 13:28:01
"148","USGS","382017122161101","MILLIKEN C BL HEDGESIDE AVE NR NAPA CA","ST",38.33805556,-122.2697222,FALSE,2021-08-20 13:28:01
"149","USGS","11453565","ETICUERA C NR KNOXVILLE CA","ST",38.7143482,-122.2610878,FALSE,2021-08-20 13:28:01
"150","USGS","382130122153501","MILLIKEN C A WESTGATE DRIVE NR NAPA CA","ST",38.3583333,-122.2597222,FALSE,2021-08-20 13:28:01
"151","USGS","11451800","CACHE C A RUMSEY CA","ST",38.8898988,-122.2383082,FALSE,2021-08-20 13:28:01
"152","USGS","381739122140001","MURPHY C AB COOMBSVILLE RD NR NAPA CA","ST",38.29416667,-122.2333333,FALSE,2021-08-20 13:28:01
"153","USGS","374708122132801","SAUSAL C A OAKLAND CA","ST",37.78568056,-122.2243389,FALSE,2021-08-20 13:28:01
"154","USGS","381909122132701","DAIRY C NR NAPA CA","ST",38.31916667,-122.2241667,FALSE,2021-08-20 13:28:01
"155","USGS","11181300","PERALTA C A OAKLAND CA","ST",37.78298369,-122.2194124,FALSE,2021-08-20 13:28:01
"156","USGS","375807122124001","PINOLE C BL ALHAMBRA VALLEY RD NR PINOLE CA","ST",37.96865278,-122.2109972,FALSE,2021-08-20 13:28:01
"157","USGS","375312122113501","SAN PABLO C A ORINDA CA","ST",37.88655278,-122.1931194,FALSE,2021-08-20 13:28:01
"158","USGS","11164500","SAN FRANCISQUITO C A STANFORD UNIVERSITY CA","ST",37.42327257,-122.1894095,FALSE,2021-08-20 13:28:01
"159","USGS","372524122111801","SAN FRANCISQUITO C A SU GOLF COURSE A PALO ALTO CA","ST",37.4229948,-122.188854,FALSE,2021-08-20 13:28:01
"160","USGS","392645122105601","LOGAN C IN NW CORNER SACRAMENTO NWR CA","ST",39.44571707,-122.1833136,FALSE,2021-08-20 13:28:01
"161","USGS","11161800","SAN VICENTE C NR DAVENPORT CA","ST",37.05522644,-122.18219,FALSE,2021-08-20 13:28:01
"162","USGS","372622122104401","SAN FRANCISQUITO C A SAN MATEO BIKE BR A PALO ALTO","ST",37.4393833,-122.1799648,FALSE,2021-08-20 13:28:01
"163","USGS","392409122102101","LOGAN C NR DAM 3 SACRAMENTO NWR CA","ST",39.40238486,-122.1735903,FALSE,2021-08-20 13:28:01
"164","USGS","375220122104201","SAN PABLO C A MORAGA WAY A ORINDA CA","ST",37.8645083,-122.1723056,FALSE,2021-08-20 13:28:01
"165","USGS","372650122100901","SAN FRANCISQUITO C A ALMA ST A PALO ALTO CA","ST",37.44716098,-122.1702424,FALSE,2021-08-20 13:28:01
"166","USGS","374336122095801","SAN LEANDRO C A ALVARADO ST A SAN LEANDRO CA","ST",37.7266083,-122.1661778,FALSE,2021-08-20 13:28:01
"167","USGS","392702122094101","LOGAN C A N BOUNDRY SACRAMENTO NWR CA","ST",39.45043935,-122.1624797,FALSE,2021-08-20 13:28:01
"168","USGS","392610122094001","LOGAN C A DAM 1 SACRAMENTO NWR CA","ST",39.43599525,-122.1622017,FALSE,2021-08-20 13:28:01
"169","USGS","11160065","BOULDER C AB JAMISON C NR BOULDER C CA","ST",37.14883507,-122.1571879,FALSE,2021-08-20 13:28:01
"170","USGS","372727122090001","SAN FRANCISQUITO C A WOODLAND AVE A PALO ALTO CA","ST",37.4574386,-122.1510753,FALSE,2021-08-20 13:28:01
"171","USGS","374810122084001","REDWOOD C A REDWOOD REG PARK NR OAKLAND CA","ST",37.80270506,-122.145521,FALSE,2021-08-20 13:28:01
"172","USGS","11160020","SAN LORENZO R NR BOULDER C CA","ST",37.20661136,-122.1449644,FALSE,2021-08-20 13:28:01
"173","USGS","392334122082701","LOGAN C A DAM 2 SACRAMENTO NWR CA","ST",39.39266307,-122.1419226,FALSE,2021-08-20 13:28:01
"174","USGS","372716122080801","SAN FRANCISQUITO C DS OF NEWELL RD BR A PALO ALTO","ST",37.4543832,-122.1366305,FALSE,2021-08-20 13:28:01
"175","USGS","372500122081201","MATADERO C A JOSINA AVE A PALO ALTO CA","ST",37.4168,-122.1365917,FALSE,2021-08-20 13:28:01
"176","USGS","11160045","SAN LORENZO R A BOULDER C CA","ST",37.14189079,-122.1338538,FALSE,2021-08-20 13:28:01
"177","USGS","11161590","LAGUNA C NR DAVENPORT CA","ST",37.02550486,-122.1310776,FALSE,2021-08-20 13:28:01
"178","USGS","11182400","ARROYO DEL HAMBRE A MARTINEZ CA","ST",38.0032551,-122.129965,FALSE,2021-08-20 13:28:01
"179","USGS","11160036","KINGS C NR BOULDER C CA","ST",37.1596681,-122.126631,FALSE,2021-08-20 13:28:01
"180","USGS","11160070","BOULDER C AT BOULDER CREEK CA","ST",37.12661339,-122.1227425,FALSE,2021-08-20 13:28:01
"181","USGS","11161570","MAJORS C NR SANTA CRUZ CA","ST",36.99856108,-122.1213554,FALSE,2021-08-20 13:28:01
"182","USGS","11180770","MT EDEN C NR UNION CITY CA","ST",37.6170833,-122.11825,FALSE,2021-08-20 13:28:01
"183","USGS","11160060","BEAR C A BOULDER C CA","ST",37.12772447,-122.1169089,FALSE,2021-08-20 13:28:01
"184","USGS","391820122065601","E DRAIN A EXCELSIOR RD DELEVAN NWR CA","ST",39.3054429,-122.1166429,FALSE,2021-08-20 13:28:01
"185","USGS","391737122065601","STONE CORRAL C A EXCELSIOR RD DELEVAN NWR CA","ST",39.29349875,-122.1166428,FALSE,2021-08-20 13:28:01
"186","USGS","381441122064301","SUISUN C A ROCKVILLE CA","ST",38.2447972,-122.1119972,FALSE,2021-08-20 13:28:01
"187","USGS","391657122061901","E DRAIN NR MAXWELL RD A DELEVAN NWR CA","ST",39.2823879,-122.1063646,FALSE,2021-08-20 13:28:01
"188","USGS","391629122061201","STONE CORRAL C A MAXWELL RD CA","ST",39.2746103,-122.10442,FALSE,2021-08-20 13:28:01
"189","USGS","375257122050001","LAS TRAMPAS C A LAFAYETTE CA","ST",37.8823972,-122.0999972,FALSE,2021-08-20 13:28:01
"190","USGS","11160150","LOVE C A BEN LOMOND","ST",37.0888365,-122.0880195,FALSE,2021-08-20 13:28:01
"191","USGS","391725122050501","DELEVAN CN A DELEVAN NWR CA","ST",39.29016558,-122.0858088,FALSE,2021-08-20 13:28:01
"192","USGS","392031122050301","LOGAN C NR COLUSA TROUGH DELEVAN NWR CA","ST",39.34183116,-122.0852539,FALSE,2021-08-20 13:28:01
"193","USGS","11455600","RAINES CR A CHADBOURNE RD NR FAIRFIELD CA","ST",38.21269307,-122.0833002,FALSE,2021-08-20 13:28:01
"194","USGS","11454000","PUTAH C NR WINTERS CA","ST",38.51518487,-122.0819159,FALSE,2021-08-20 13:28:01
"195","USGS","11181008","CASTRO VALLEY C A HAYWARD CA","ST",37.6799311,-122.0805186,FALSE,2021-08-20 13:28:01
"196","USGS","11160230","FALL C BL BENNETT C A FELTON CA","ST",37.05300405,-122.080242,FALSE,2021-08-20 13:28:01
"197","USGS","11160250","FALL C A FELTON CA","ST",37.059115,-122.0794085,FALSE,2021-08-20 13:28:01
"198","USGS","11160055","BEAR C NR BOULDER C CA","ST",37.16494575,-122.0746845,FALSE,2021-08-20 13:28:01
"199","USGS","11160200","NEWELL C A BEN LOMOND CA","ST",37.09494746,-122.07413,FALSE,2021-08-20 13:28:01
"200","USGS","11160500","SAN LORENZO R A BIG TREES CA","ST",37.0443931,-122.072464,FALSE,2021-08-20 13:28:01
"201","USGS","11455580","ALONZO DR A CORDELIA RD NR FAIRFIELD CA","ST",38.23047014,-122.0666334,FALSE,2021-08-20 13:28:01
"202","USGS","11160450","ZAYANTE C A FELTON CA","ST",37.0482819,-122.0663527,FALSE,2021-08-20 13:28:01
"203","USGS","375819122035801","GRAYSON C A GOLF CLUB RD NR PLEASANT HILL CA","ST",37.972,-122.066,FALSE,2021-08-20 13:28:01
"204","USGS","11181000","SAN LORENZO C A HAYWARD CA","ST",37.68548644,-122.064407,FALSE,2021-08-20 13:28:01
"205","USGS","11169580","CALABAZAS C TRIB AT MT EDEN RD NR SARATOGA CA","ST",37.26910995,-122.0610717,FALSE,2021-08-20 13:28:01
"206","USGS","375413122033301","WALNUT C A CIVIC DR A WALNUT CREEK CA","ST",37.90366944,-122.0592167,FALSE,2021-08-20 13:28:01
"207","USGS","390935122032901","INFLOW CN A COLUSA NWR CA","ST",39.1596138,-122.0591395,FALSE,2021-08-20 13:28:01
"208","USGS","11169600","PROSPECT C AT SARATOGA GOLF COURSE NR SARATOGA CA","ST",37.28577626,-122.0549605,FALSE,2021-08-20 13:28:01
"209","USGS","11180960","CULL C AB CULL C RES NR CASTRO VALLEY CA","ST",37.71770737,-122.0544067,FALSE,2021-08-20 13:28:01
"210","USGS","391100122030101","COLUSA TROUGH A COLUSA NWR CA","ST",39.1832242,-122.051362,FALSE,2021-08-20 13:28:01
"211","USGS","11160320","LOMPICO C A ZAYANTE CA","ST",37.08300327,-122.0513516,FALSE,2021-08-20 13:28:01
"212","USGS","11183000","SAN RAMON C AT WALNUT CREEK CA","ST",37.8843691,-122.0510736,FALSE,2021-08-20 13:28:01
"213","USGS","11183600","WALNUT C A CONCORD CA","ST",37.9452008,-122.0496848,FALSE,2021-08-20 13:28:01
"214","USGS","11160300","ZAYANTE C A ZAYANTE CA","ST",37.08605874,-122.0469069,FALSE,2021-08-20 13:28:01
"215","USGS","391118122023501","POWELL SLOUGH A COLUSA NWR CA","ST",39.18822406,-122.0441398,FALSE,2021-08-20 13:28:01
"216","USGS","11180900","CROW C NR HAYWARD CA","ST",37.70493008,-122.0438508,FALSE,2021-08-20 13:28:01
"217","USGS","11160430","BEAN C NR SCOTTS VALLEY CA","ST",37.0552261,-122.0413516,FALSE,2021-08-20 13:28:01
"218","USGS","11169500","SARATOGA C A SARATOGA CA","ST",37.25438808,-122.039404,FALSE,2021-08-20 13:28:01
"219","USGS","390841122013701","DISCHARGE CN A COLUSA NWR CA","ST",39.14461444,-122.0280275,FALSE,2021-08-20 13:28:01
"220","USGS","11169616","CALABAZAS C A RAINBOW DRIVE NR CUPERTINO CA","ST",37.300776,-122.0266263,FALSE,2021-08-20 13:28:01
"221","USGS","11160280","ZAYANTE C BL MT CHAR GUL NR ZAYANTE CA","ST",37.1060582,-122.0224612,FALSE,2021-08-20 13:28:01
"222","USGS","373630122010501","DRY C NR UNION CITY CA","ST",37.6083333,-122.0180556,FALSE,2021-08-20 13:28:01
"223","USGS","371620122005801","SARATOGA C A BRAEMAR DR A SARATOGA CA","ST",37.27225,-122.0162889,FALSE,2021-08-20 13:28:01
"224","USGS","11161500","BRANCIFORTE C A SANTA CRUZ CA","ST",36.9860611,-122.0144069,FALSE,2021-08-20 13:28:01
"225","USGS","11161400","CARBONERA C A SANTA CRUZ CA","ST",36.9866166,-122.0144069,FALSE,2021-08-20 13:28:01
"226","USGS","382245122001601","ULATIS C A FARRELL RD NR VACAVILLE CA","ST",38.37916944,-122.0043194,FALSE,2021-08-20 13:28:01
"227","USGS","374933122001301","SAN RAMON C A LA GONDA WAY A DANVILLE CA","ST",37.8257111,-122.0035389,FALSE,2021-08-20 13:28:01
"228","USGS","11179100","ALAMEDA C NR FREMONT CA","ST",37.56660245,-122.0016278,FALSE,2021-08-20 13:28:01
"229","USGS","11389500","SACRAMENTO R A COLUSA CA","ST",39.2140566,-122.0002508,FALSE,2021-08-20 13:28:01
"230","USGS","11182500","SAN RAMON C A SAN RAMON CA","ST",37.772983,-121.9946825,FALSE,2021-08-20 13:28:01
"231","USGS","11168000","LOS GATOS C A LOS GATOS CA","ST",37.2174445,-121.9874581,FALSE,2021-08-20 13:28:01
"232","USGS","11167970","LOS GATOS C AB LEXINGTON RE NR LOS GATOS CA","ST",37.1671679,-121.9796808,FALSE,2021-08-20 13:28:01
"233","USGS","382035121575501","ALAMO C A TULARE RD BR NR VACAVILLE CA","ST",38.3430833,-121.96535,FALSE,2021-08-20 13:28:01
"234","USGS","11168660","LOS GATOS C A LARK A AT LOS GATOS CA","ST",37.25188815,-121.9644013,FALSE,2021-08-20 13:28:01
"235","USGS","11179000","ALAMEDA C NR NILES CA","ST",37.58715679,-121.960793,FALSE,2021-08-20 13:28:01
"236","USGS","11160000","SOQUEL C A SOQUEL CA","ST",36.9913389,-121.9557933,FALSE,2021-08-20 13:28:01
"237","USGS","11178400","STONYBROOK C NR NILES CA","ST",37.59826736,-121.9485703,FALSE,2021-08-20 13:28:01
"238","USGS","375701121564401","MT DIABLO C A CLAYTON CA","ST",37.95036389,-121.9456472,FALSE,2021-08-20 13:28:01
"239","USGS","11159800","WB SOQUEL C NR SOQUEL CA","ST",37.05133748,-121.9391252,FALSE,2021-08-20 13:28:01
"240","USGS","11169025","GUADALUPE R ABV HWY 101 A SAN JOSE CA","ST",37.3738296,-121.9330129,FALSE,2021-08-20 13:28:01
"241","USGS","371738121555901","LOS GATOS C A E HAMILTON AVE NR CAMPBELL CA","ST",37.2939,-121.933,FALSE,2021-08-20 13:28:01
"242","USGS","391203121554101","BUTTE C NR BUTTE SLOUGH CA","ST",39.20072386,-121.9291389,FALSE,2021-08-20 13:28:01
"243","USGS","11185185","SUISUN BAY A MALLARD IS CA","ST",38.04269787,-121.9202374,FALSE,2021-08-20 13:28:01
"244","USGS","11143046","GARRAPATA C A HWY 1 NR NOTLEYS LANDING CA","ST",36.41718486,-121.9135663,FALSE,2021-08-20 13:28:01
"245","USGS","11167500","GUADALUPE C A GUADALUPE CA","ST",37.2171667,-121.9107886,FALSE,2021-08-20 13:28:01
"246","USGS","372303121542901","COYOTE C BL CHARCOT AVE NR SAN JOSE CA","ST",37.3843,-121.908,FALSE,2021-08-20 13:28:01
"247","USGS","11176350","ARROYO DE LA LAGUNA AB AV NR PLEASANTON CA","ST",37.66270908,-121.9063466,FALSE,2021-08-20 13:28:01
"248","USGS","11159690","APTOS C NR APTOS CA","ST",37.00161665,-121.9060688,FALSE,2021-08-20 13:28:01
"249","USGS","11168800","LOS GATOS C A LINCOLN AVE AT SAN JOSE CA","ST",37.31244207,-121.9043999,FALSE,2021-08-20 13:28:01
"250","USGS","11159700","APTOS C A APTOS CA","ST",36.9763396,-121.9024573,FALSE,2021-08-20 13:28:01
"251","USGS","11169000","GUADALUPE R A SAN JOSE CA","ST",37.3343859,-121.8994,FALSE,2021-08-20 13:28:01
"252","USGS","11455235","ULATIS C A LEWIS RD NR ELMIRA CA","ST",38.37352137,-121.8966305,FALSE,2021-08-20 13:28:01
"253","USGS","392143121532901","BUTTE C A GRIDLEY RD NR BUTTE SINK NWR CA","ST",39.36183185,-121.8924742,FALSE,2021-08-20 13:28:01
"254","USGS","11174200","ALAMEDA C A SUNOL CA","ST",37.58743394,-121.890235,FALSE,2021-08-20 13:28:01
"255","USGS","11167700","ROSS C BL JARVIS RD NR SAN JOSE CA","ST",37.2632766,-121.8866208,FALSE,2021-08-20 13:28:01
"256","USGS","11177300","SINBAD C A SUNOL CA","ST",37.59465587,-121.886346,FALSE,2021-08-20 13:28:01
"257","USGS","11143020","LITTLE SUR R NR PT SUR CA","ST",36.33246319,-121.8852334,FALSE,2021-08-20 13:28:01
"258","USGS","11455283","NOONAN DR A HAY RD NR ELMIRA CA","ST",38.31574507,-121.8849625,FALSE,2021-08-20 13:28:01
"259","USGS","11176900","ARROYO DE LA LAGUNA A VERONA CA","ST",37.62659915,-121.8830126,FALSE,2021-08-20 13:28:01
"260","USGS","11176600","ARROYO VALLE A PLEASANTON CA","ST",37.66715326,-121.8827347,FALSE,2021-08-20 13:28:01
"261","USGS","371814121525601","GUADALUPE R A WILLOW GLEN WAY NR SAN JOSE CA","ST",37.3039472,-121.88225,FALSE,2021-08-20 13:28:01
"262","USGS","11177200","VALLECITOS C A SUNOL CA","ST",37.5949336,-121.8819015,FALSE,2021-08-20 13:28:01
"263","USGS","391942121525001","HAMILTON SLOUGH A TULE GOOSE GUN CLUB CA","ST",39.32822137,-121.8816404,FALSE,2021-08-20 13:28:01
"264","USGS","11177000","ARROYO DE LA LAGUNA NR PLEASANTON CA","ST",37.61521066,-121.8816236,FALSE,2021-08-20 13:28:01
"265","USGS","11176300","TASSAJARA C NR PLEASANTON CA","ST",37.69909655,-121.8791234,FALSE,2021-08-20 13:28:01
"266","USGS","392126121523701","CHEROKEE CN NR GRIDLEY RD A BUTTE SINK NWR CA","ST",39.35710979,-121.8780296,FALSE,2021-08-20 13:28:01
"267","USGS","11455257","GIBSON CN C A SOUTHERN PACIFIC RR NR ELMIRA CA","ST",38.39102094,-121.8735744,FALSE,2021-08-20 13:28:01
"268","USGS","11176200","ARROYO MOCHO NR PLEASANTON CA","ST",37.6904857,-121.8732899,FALSE,2021-08-20 13:28:01
"269","USGS","11167572","GUADALUPE R A ALMTOS RCHG FAC AT SAN JOSE CA","ST",37.24744369,-121.8699534,FALSE,2021-08-20 13:28:01
"270","USGS","11455255","SWEENEY C A WEBER RD NR DIXON CA","ST",38.40213178,-121.8619075,FALSE,2021-08-20 13:28:01
"271","USGS","11455265","ALAMO C A BROWNS DAM NR ELMIRA CA","ST",38.3288003,-121.8599618,FALSE,2021-08-20 13:28:01
"272","USGS","11166900","ALAMITOS C NR NEW ALMADEN CA","ST",37.22244434,-121.851064,FALSE,2021-08-20 13:28:01
"273","USGS","11176180","ARROYO LAS POSITAS A ELCH RD NR PLEASANTON CA","ST",37.6968743,-121.8494003,FALSE,2021-08-20 13:28:01
"274","USGS","374100121500201","R AND  J DISCHARGE NR PLEASANTON CA","ST",37.6832636,-121.8349554,FALSE,2021-08-20 13:28:01
"275","USGS","380345121491401","SACRAMENTO R AB POINT SACRAMENTO NR ANTIOCH CA","ST",38.06241667,-121.8205,FALSE,2021-08-20 13:28:01
"276","USGS","365222121483301","AG DRAIN EAST OF SHELL RD NR WATSONVILLE CA","ST",36.87273179,-121.81023,FALSE,2021-08-20 13:28:01
"277","USGS","11159150","CORRALITOS C NR CORRALITOS CA","ST",37.00550594,-121.8080085,FALSE,2021-08-20 13:28:01
"278","USGS","11452500","CACHE C A YOLO CA","ST",38.727126,-121.8071874,FALSE,2021-08-20 13:28:01
"279","USGS","380118121482301","SAN JOAQUIN R A KIMBALL ISLAND NR ANTIOCH CA","ST",38.0216111,-121.8063056,FALSE,2021-08-20 13:28:01
"280","USGS","11176150","ARROYO LAS POSITAS NR LIVERMORE CA","ST",37.6977075,-121.8052322,FALSE,2021-08-20 13:28:01
"281","USGS","365236121481301","AG DRAIN W OF SAN ANDREAS RD NR WATSONVILLE CA","ST",36.87662059,-121.8046743,FALSE,2021-08-20 13:28:01
"282","USGS","365324121480401","WATSONVILLE SL AB HARKIN SL PUMP NR WATSONVILLE CA","ST",36.88995357,-121.8021743,FALSE,2021-08-20 13:28:01
"283","USGS","11171500","COYOTE C NR EDENVALE CA","ST",37.2707762,-121.797451,FALSE,2021-08-20 13:28:01
"284","USGS","11455261","ULATIS C A BROWNS RD NR ELMIRA CA","ST",38.3065787,-121.7946815,FALSE,2021-08-20 13:28:01
"285","USGS","371554121474101","COYOTE C A COYOTE RD NR SAN JOSE CA","ST",37.26493889,-121.7946583,FALSE,2021-08-20 13:28:01
"286","USGS","365247121473301","PAJARO R BL THURWATCHER RD NR WATSONVILLE CA","ST",36.8796761,-121.7935627,FALSE,2021-08-20 13:28:01
"287","USGS","371049121472501","ALMADEN-CALERO CN NR NEW ALMADEN CA","ST",37.18022329,-121.7913399,FALSE,2021-08-20 13:28:01
"288","USGS","11390890","COLUSA BASIN DR A RD 99E NR KNIGHTS LANDING CA","ST",38.8124013,-121.774132,FALSE,2021-08-20 13:28:01
"289","USGS","11176145","ARROYO LAS POSITAS A LIVERMORE CA","ST",37.6996518,-121.7735646,FALSE,2021-08-20 13:28:01
"290","USGS","11143000","BIG SUR R NR BIG SUR CA","ST",36.24579648,-121.7732872,FALSE,2021-08-20 13:28:01
"291","USGS","11159200","CORRALITOS C A FREEDOM CA","ST",36.9393968,-121.7705065,FALSE,2021-08-20 13:28:01
"292","USGS","11173200","ARROYO HONDO NR SAN JOSE CA","ST",37.46160337,-121.769397,FALSE,2021-08-20 13:28:01
"293","USGS","11153470","LLAGAS C AB CHESBRO RES NR MORGAN HILL CA","ST",37.1483333,-121.7683333,FALSE,2021-08-20 13:28:01
"294","USGS","390645121460101","SUTTER BYPASS NR WADSWORTH CN CA","ST",39.1123923,-121.7680251,FALSE,2021-08-20 13:28:01
"295","USGS","11455485","SACRAMENTO R BL TOLAND LANDING NR RIO VISTA CA","ST",38.0778083,-121.767286,FALSE,2021-08-20 13:28:01
"296","USGS","11166710","ARROYO CALERO AB CALERO RES NR NEW ALMADEN CA","ST",37.1771678,-121.763561,FALSE,2021-08-20 13:28:01
"297","USGS","372949121453901","ALAMEDA C AB DIV DAM FOR AQUEDUCT TO CALAVERAS RES","ST",37.49694444,-121.7608333,FALSE,2021-08-20 13:28:01
"298","USGS","11176500","ARROYO VALLE NR LIVERMORE CA","ST",37.62326509,-121.7588418,FALSE,2021-08-20 13:28:01
"299","USGS","374220121451601","ARROYO LAS POSITAS AB ALTAMONT C CA","ST",37.7054849,-121.7555085,FALSE,2021-08-20 13:28:01
"300","USGS","11159500","PAJARO R A WATSONVILLE CA","ST",36.9056111,-121.7518889,FALSE,2021-08-20 13:28:01
"301","USGS","365718121444301","UNNAMED TRIB A PAULSEN RD NR FREEDOM CA","ST",36.9549972,-121.7453,FALSE,2021-08-20 13:28:01
"302","USGS","11455272","RECLAM DR NO 2068 V AT SWAN RD NR DIXON CA","ST",38.35796638,-121.7399584,FALSE,2021-08-20 13:28:01
"303","USGS","11455478","SACRAMENTO R A DECKER ISLAND NR RIO VISTA CA","ST",38.093252,-121.7371772,FALSE,2021-08-20 13:28:01
"304","USGS","381819121435001","HASS SLOUGH A MALCOLM LN NR DOZIER CA","ST",38.30528056,-121.7306,FALSE,2021-08-20 13:28:01
"305","USGS","384340121434401","CACHE C INFLOW TO SETTLING BASIN NR WOODLAND","ST",38.7276816,-121.7299632,FALSE,2021-08-20 13:28:01
"306","USGS","11452600","CACHE C INFLOW TO SETTLING BASIN NR YOLO CA","ST",38.72601499,-121.7299631,FALSE,2021-08-20 13:28:01
"307","USGS","390159121434201","SUTTER BYPASS NR OBANION RD CA","ST",39.03294907,-121.7294118,FALSE,2021-08-20 13:28:01
"308","USGS","11176140","ALTAMONT C NR LIVERMORE CA","ST",37.72298447,-121.7291189,FALSE,2021-08-20 13:28:01
"309","USGS","381741121433501","HASS SLOUGH A SYCAMORE SLOUGH NR DOZIER CA","ST",38.2947611,-121.7265194,FALSE,2021-08-20 13:28:01
"310","USGS","11390650","SACRAMENTO R AB COLUSA TRIB AT KNIGHTS LANDING CA","ST",38.8049014,-121.7238528,FALSE,2021-08-20 13:28:01
"311","USGS","381719121432301","CACHE SLOUGH A HASS SLOUGH NR LIBERTY FARMS CA","ST",38.28838056,-121.7230194,FALSE,2021-08-20 13:28:01
"312","USGS","380205121424501","SAN JOAQUIN R A JERSEY ISLAND NR OAKLEY CA","ST",38.03458889,-121.7123806,FALSE,2021-08-20 13:28:01
"313","USGS","384039121423401","CACHE C SETTLING BASIN OUTFLOW AT SW CORNER","ST",38.6775,-121.7094444,FALSE,2021-08-20 13:28:01
"314","USGS","11455280","CACHE SLOUGH NR HASTINGS TRACT NR RIO VISTA CA","ST",38.27555556,-121.7091667,FALSE,2021-08-20 13:28:01
"315","USGS","380607121422701","HORSESHOE BEND A DECKER ISLAND NR RIO VISTA CA","ST",38.10185,-121.707461,FALSE,2021-08-20 13:28:01
"316","USGS","11176000","ARROYO MOCHO NR LIVERMORE CA","ST",37.62632039,-121.7046734,FALSE,2021-08-20 13:28:01
"317","USGS","381448121420801","LINDSEY SLOUGH NR LIBERTY FARMS CA","ST",38.24666667,-121.7022222,FALSE,2021-08-20 13:28:01
"318","USGS","380702121420201","SACRAMENTO R BL HWY 12 NR RIO VISTA CA","ST",38.1172611,-121.700611,FALSE,2021-08-20 13:28:01
"319","USGS","383109121414601","SF PUTAH C A MACE RD NR DAVIS CA","ST",38.51916667,-121.696111,FALSE,2021-08-20 13:28:01
"320","USGS","381627121413600","YOLO BYPASS A LIBERTY ISLAND CN W CA","ST",38.27407985,-121.6944008,FALSE,2021-08-20 13:28:01
"321","USGS","381910121413501","DELTA RMP YOLO-004","ST",38.31956944,-121.693,FALSE,2021-08-20 13:28:01
"322","USGS","381829121413401","SHAG SLOUGH AB LIBERTY ISLAND RD NR OXFORD CA","ST",38.30791944,-121.6928306,FALSE,2021-08-20 13:28:01
"323","USGS","11455276","SHAG SLOUGH A LIBERTY ISLAND NR COURTLAND CA","ST",38.3078583,-121.6924278,FALSE,2021-08-20 13:28:01
"324","USGS","381533121413201","CACHE SLOUGH A FRENCH ISLAND NR RYDE CA","ST",38.25916667,-121.6922222,FALSE,2021-08-20 13:28:01
"325","USGS","381609121413101","DELTA RMP YOLO-002","ST",38.26918889,-121.692,FALSE,2021-08-20 13:28:01
"326","USGS","381458121413101","LITTLE HASTINGS TRACT A CACHE SLOUGH NR RIO VISTA","ST",38.24953056,-121.6918056,FALSE,2021-08-20 13:28:01
"327","USGS","11455145","RECLAM PU NO 5 SP NR COURTLAND CA","ST",38.3288006,-121.6905126,FALSE,2021-08-20 13:28:01
"328","USGS","11153500","LLAGAS C NR MORGAN HILL CA","ST",37.11439105,-121.6905028,FALSE,2021-08-20 13:28:01
"329","USGS","11455420","SACRAMENTO R A RIO VISTA CA","ST",38.14904444,-121.6889444,FALSE,2021-08-20 13:28:01
"330","USGS","11337190","SAN JOAQUIN R A JERSEY POINT CA","ST",38.0521424,-121.6888428,FALSE,2021-08-20 13:28:01
"331","USGS","380931121410501","SACRAMENTO R BL HWY 12 BRIDGE NR RIO VISTA CA","ST",38.15856389,-121.6846194,FALSE,2021-08-20 13:28:01
"332","USGS","11455315","CACHE SLOUGH A S LIBERTY ISLAND NR RIO VISTA CA","ST",38.2430111,-121.684286,FALSE,2021-08-20 13:28:01
"333","USGS","380640121405701","THREEMILE SLOUGH A TWITCHELL ISLAND NR RIO VISTA","ST",38.1111,-121.682561,FALSE,2021-08-20 13:28:01
"334","USGS","380504121405601","SAN JOAQUIN R BL THREEMILE SLOUGH NR RIO VISTA CA","ST",38.08456389,-121.6823306,FALSE,2021-08-20 13:28:01
"335","USGS","381424121405601","PROSPECT SLOUGH NR FIVE POINTS CA","ST",38.23989167,-121.6821556,FALSE,2021-08-20 13:28:01
"336","USGS","381427121404901","LOWER YOLO BYPASS NR RIO VISTA CA","ST",38.2407475,-121.6813446,FALSE,2021-08-20 13:28:01
"337","USGS","381944121405201","LIBERTY ISLAND A MID STAIR STEP NR COURTLAND CA","ST",38.32895,-121.681011,FALSE,2021-08-20 13:28:01
"338","USGS","381000121403601","SACRAMENTO R AB HWY 12 BRIDGE NR RIO VISTA CA","ST",38.1662111,-121.6781667,FALSE,2021-08-20 13:28:01
"339","USGS","380353121403701","SAN JOAQUIN R AB FALSE NR BETHEL ISLAND CA","ST",38.0646,-121.6769,FALSE,2021-08-20 13:28:01
"340","USGS","11455125","RECLAM DR Z A HICKMAN RD NR CLARKSBURG CA","ST",38.45213065,-121.675514,FALSE,2021-08-20 13:28:01
"341","USGS","384043121402301","CACHE C SETTLING BASIN SITE D NR WOODLAND CA","ST",38.67851527,-121.6741275,FALSE,2021-08-20 13:28:01
"342","USGS","384115121402501","CACHE C OVERFLOW WEIR AT N ABUTMENT NR WOODLAND CA","ST",38.6875,-121.673611,FALSE,2021-08-20 13:28:01
"343","USGS","381400121402501","SACRAMENTO R DEEP WATER SHIP CHANNEL NR RYDE CA","ST",38.23321944,-121.6735694,FALSE,2021-08-20 13:28:01
"344","USGS","11452800","CACHE C OVERFLOW WEIR FROM SETTLING BAS NR WOOD'LD","ST",38.68268185,-121.6730164,FALSE,2021-08-20 13:28:01
"345","USGS","382010121402301","LIBERTY ISLAND A UPPER STAIR STEP NR FIVE POINTS C","ST",38.33616667,-121.672925,FALSE,2021-08-20 13:28:01
"346","USGS","11452900","CACHE C OUTFLOW FROM SETTLING BASIN NR WOODLAND CA","ST",38.67851526,-121.6727386,FALSE,2021-08-20 13:28:01
"347","USGS","11152500","SALINAS R NR SPRECKELS CA","ST",36.631071,-121.672446,FALSE,2021-08-20 13:28:01
"348","USGS","11455135","RECLAM DR X A MIDWAY RD NR CLARKSBURG CA","ST",38.41574276,-121.6719024,FALSE,2021-08-20 13:28:01
"349","USGS","382006121401601","LIBERTY ISLAND A LIBERTY CUT NR COURTLAND CA","ST",38.33500556,-121.6711083,FALSE,2021-08-20 13:28:01
"350","USGS","11455350","CACHE SLOUGH A RYER ISLAND","ST",38.21277778,-121.6691667,FALSE,2021-08-20 13:28:01
"351","USGS","11391020","SACRAMENTO R A FREMONT WEIR (WEST END) CA","ST",38.75990254,-121.6677393,FALSE,2021-08-20 13:28:01
"352","USGS","11455146","LIBERTY CUT A LITTLE HOLLAND TRACT NR COURTLAND CA","ST",38.32885,-121.6675306,FALSE,2021-08-20 13:28:01
"353","USGS","11313440","FALSE R NR OAKLEY CA","ST",38.0558333,-121.6669444,FALSE,2021-08-20 13:28:01
"354","USGS","11455163","LIBERTY CUT A WEST BREACH NR COURTLAND CA","ST",38.29451389,-121.6668528,FALSE,2021-08-20 13:28:01
"355","USGS","11455335","SACRAMENTO R DEEP WATER SHIP CHANNEL NR RIO VISTA","ST",38.2561111,-121.6666667,FALSE,2021-08-20 13:28:01
"356","USGS","381410121395801","MINER SLOUGH NR RIO VISTA CA","ST",38.23602778,-121.6660556,FALSE,2021-08-20 13:28:01
"357","USGS","11455166","PROSPECT SLOUGH A LIBERTY CUT NR COURTLAND CA","ST",38.29041667,-121.6659722,FALSE,2021-08-20 13:28:01
"358","USGS","381627121395101","PROSPECT SLOUGH A PROSPECT ISLAND NR RYDE CA","ST",38.27425,-121.6641667,FALSE,2021-08-20 13:28:01
"359","USGS","11455167","PROSPECT SLOUGH A TOE DRAIN NR COURTLAND CA","ST",38.2903861,-121.662225,FALSE,2021-08-20 13:28:01
"360","USGS","11153530","LLAGAS C A MACHADO SCH NR MORGAN HILL CA","ST",37.08966918,-121.6616127,FALSE,2021-08-20 13:28:01
"361","USGS","380542121393501","SAN JOAQUIN R A BRADFORD ISLAND NR RIO VISTA CA","ST",38.09506944,-121.6597,FALSE,2021-08-20 13:28:01
"362","USGS","11455143","LITTLE HOLLAND TRACT A NORTH BREACH NR COURTLAND C","ST",38.3354111,-121.658186,FALSE,2021-08-20 13:28:01
"363","USGS","11455385","CACHE SLOUGH AB RYER ISLAND FERRY NR RIO VISTA CA","ST",38.19395556,-121.6580028,FALSE,2021-08-20 13:28:01
"364","USGS","381821121392701","TOE DRAIN NR OXFORD CA","ST",38.30573889,-121.657461,FALSE,2021-08-20 13:28:01
"365","USGS","381514121392101","MINER SLOUGH A PROSPECT ISLAND NR RYDE CA","ST",38.25395,-121.6558,FALSE,2021-08-20 13:28:01
"366","USGS","381942121391201","LITTLE HOLLAND TRACT A COUNTY RD 107 NR COURTLAND","ST",38.32828056,-121.6532694,FALSE,2021-08-20 13:28:01
"367","USGS","11170000","COYOTE C NR MADRONE CA","ST",37.1682777,-121.6496677,FALSE,2021-08-20 13:28:01
"368","USGS","11407150","FEATHER R NR GRIDLEY CA","ST",39.3665551,-121.6471932,FALSE,2021-08-20 13:28:01
"369","USGS","383519121384901","WILLOW SLOUGH BYPASS A LEVEE RD NR DAVIS CA","ST",38.5886611,-121.6470389,FALSE,2021-08-20 13:28:01
"370","USGS","11455140","TOE DRAIN A LIBERTY ISLAND NR COURTLAND CA","ST",38.34916667,-121.6447222,FALSE,2021-08-20 13:28:01
"371","USGS","11455142","SACRAMENTO R DEEP WATER SHIP CHANNEL NR COURTLAND","ST",38.34166667,-121.6438889,FALSE,2021-08-20 13:28:01
"372","USGS","11391100","SACRAMENTO SLOUGH NR KNIGHTS LANDING CA","ST",38.77906827,-121.6385719,FALSE,2021-08-20 13:28:01
"373","USGS","381022121381701","SACRAMENTO R A IDA ISLAND NR ISLETON CA","ST",38.1727,-121.637961,FALSE,2021-08-20 13:28:01
"374","USGS","11455139","TOE DRAIN A MALLARD RD NR COURTLAND CA","ST",38.36513889,-121.6377417,FALSE,2021-08-20 13:28:01
"375","USGS","382445121381101","YOLO BYPASS 1.8 MI AB COUNTY RD 155 NR CLARKSBURG","ST",38.41241944,-121.6363889,FALSE,2021-08-20 13:28:01
"376","USGS","11169970","COYOTE C BL LEROY ANDERSON DAM NR MADRONE CA","ST",37.1649442,-121.6332782,FALSE,2021-08-20 13:28:01
"377","USGS","383308121374701","YOLO BWA DAVIS DRAIN NR EL MACERO CA","ST",38.5522222,-121.6297222,FALSE,2021-08-20 13:28:01
"378","USGS","383310121374501","YOLO BWA INLET 0.1 MI E OF LEVEE NR EL MACERO CA","ST",38.55277778,-121.6291667,FALSE,2021-08-20 13:28:01
"379","USGS","384034121374100","SACRAMENTO R A I5 BRIDGE NR BRYTE CA","ST",38.67601498,-121.6291262,FALSE,2021-08-20 13:28:01
"380","USGS","364138121373701","GABILAN C AB E LAUREL DR NR SALINAS CA","ST",36.69396389,-121.6272528,FALSE,2021-08-20 13:28:01
"381","USGS","364003121373501","ALISAL C A FAIRVIEW AVE NR SALINAS CA","ST",36.66725,-121.627,FALSE,2021-08-20 13:28:01
"382","USGS","382406121373201","YOLO BYPASS 1.1 MI AB COUNTY RD 155 NR CLARKSBURG","ST",38.40161944,-121.6254694,FALSE,2021-08-20 13:28:01
"383","USGS","380000121373001","SAND MOUND SLOUGH A BETHEL ISLAND CA","ST",38,-121.6251944,FALSE,2021-08-20 13:28:01
"384","USGS","383315121373001","YOLO BWA 0.4 MI E OF LEVEE NR EL MACERO CA","ST",38.55416667,-121.625,FALSE,2021-08-20 13:28:01
"385","USGS","380604121372401","SAN JOAQUIN R A TWITCHELL ISLAND NR RIO VISTA CA","ST",38.101,-121.623461,FALSE,2021-08-20 13:28:01
"386","USGS","382752121372401","YOLO BYPASS A COUNTY RD 38 NR SAXON CA","ST",38.46433889,-121.62325,FALSE,2021-08-20 13:28:01
"387","USGS","382407121371501","TOE DRAIN A CENTRAL AVE NR CLARKSBURG CA","ST",38.40193889,-121.6208,FALSE,2021-08-20 13:28:01
"388","USGS","383307121371201","YOLO BWA INLET 2.0 MI W OF TOE DRAIN NR W SAC CA","ST",38.55194444,-121.62,FALSE,2021-08-20 13:28:01
"389","USGS","383326121371201","YOLO BWA OUTLET 1.3 MI SW OF GREENS LK NR W SAC CA","ST",38.5572222,-121.62,FALSE,2021-08-20 13:28:01
"390","USGS","381141121370901","DELTA RMP SACR-008","ST",38.194725,-121.6190722,FALSE,2021-08-20 13:28:01
"391","USGS","383324121365901","YOLO BWA 0.8 MI W OF GREENS LK NR W SACRAMENTO CA","ST",38.55666667,-121.6163889,FALSE,2021-08-20 13:28:01
"392","USGS","383301121365501","YOLO BWA 1.7 MI W OF TOE DRAIN NR W SACRAMENTO CA","ST",38.55027778,-121.6152778,FALSE,2021-08-20 13:28:01
"393","USGS","11453120","YOLO BYPASS A I-80 NR W SACRAMENTO CA","ST",38.56685029,-121.615236,FALSE,2021-08-20 13:28:01
"394","USGS","382935121364801","YOLO BWA 1.3 MI W OF TOE DRAIN NR DAVIS CA","ST",38.49303056,-121.6133222,FALSE,2021-08-20 13:28:01
"395","USGS","383252121364101","YOLO BWA WEIR BOX 1.4 MI W OF TOE DRAIN NR W SAC","ST",38.54777778,-121.6113889,FALSE,2021-08-20 13:28:01
"396","USGS","364155121363901","NATIVIDAD C NR SALINAS CA","ST",36.6987,-121.6107222,FALSE,2021-08-20 13:28:01
"397","USGS","383308121363801","YOLO BWA SOUTH SUPPLY DITCH NR W SACRAMENTO CA","ST",38.5522222,-121.6105556,FALSE,2021-08-20 13:28:01
"398","USGS","383309121363801","YOLO BWA OUTLET 0.8 MI SW OF GREENS LK NR W SAC CA","ST",38.5525,-121.6105556,FALSE,2021-08-20 13:28:01
"399","USGS","383340121363801","YOLO BWA INLET 0.7 MI W OF GREENS LK NR W SAC CA","ST",38.5611111,-121.6105556,FALSE,2021-08-20 13:28:01
"400","USGS","11152600","GABILAN C NR SALINAS CA","ST",36.75579196,-121.6105005,FALSE,2021-08-20 13:28:01
"401","USGS","383307121363601","YOLO BWA INLET 1.4 MI W OF TOE DRAIN NR W SAC CA","ST",38.55194444,-121.61,FALSE,2021-08-20 13:28:01
"402","USGS","383324121363201","YOLO BWA 0.5 MI W OF GREENS LK NR W SACRAMENTO CA","ST",38.55666667,-121.6088889,FALSE,2021-08-20 13:28:01
"403","USGS","390845121362701","FEATHER R BL JACK SLOUGH NR MARYSVILLE CA","ST",39.1457253,-121.6085774,FALSE,2021-08-20 13:28:01
"404","USGS","383248121362701","YOLO BWA 1.2 MI W OF TOE DRAIN NR W SACRAMENTO CA","ST",38.54666667,-121.6075,FALSE,2021-08-20 13:28:01
"405","USGS","383234121362303","YOLO BWA SW OUTLET 1.0 MI W OF TOE DRAIN NR W SAC","ST",38.54277778,-121.6063889,FALSE,2021-08-20 13:28:01
"406","USGS","383310121362301","YOLO BWA OUTLET 0.6 MI SW OF GREENS LK NR W SAC CA","ST",38.55277778,-121.6063889,FALSE,2021-08-20 13:28:01
"407","USGS","383158121362301","YOLO BWA 1.5 MI S OF GREENS LK NR WEST SACRAMENTO","ST",38.53291389,-121.606261,FALSE,2021-08-20 13:28:01
"408","USGS","11153555","LLAGAS C A SAN MARTIN CA","ST",37.0868907,-121.6052214,FALSE,2021-08-20 13:28:01
"409","USGS","370512121361901","LLAGAS C A SAN MARTIN AVE A SAN MARTIN CA","ST",37.08674167,-121.6052056,FALSE,2021-08-20 13:28:01
"410","USGS","383249121361701","YOLO BWA 1.1 MI W OF TOE DRAIN NR W SACRAMENTO CA","ST",38.54694444,-121.6047222,FALSE,2021-08-20 13:28:01
"411","USGS","11425000","FEATHER R NR NICOLAUS","ST",38.8904532,-121.6044058,FALSE,2021-08-20 13:28:01
"412","USGS","383307121360901","YOLO BWA INLET 0.5 MI S OF GREENS LK NR W SAC CA","ST",38.55194444,-121.6025,FALSE,2021-08-20 13:28:01
"413","USGS","381425121360701","DELTA RMP SACR-006","ST",38.24023889,-121.602,FALSE,2021-08-20 13:28:01
"414","USGS","383228121360401","YOLO BYPASS SEASONAL WETLD OUTLET NR W SACRAMENTO","ST",38.5411111,-121.601111,FALSE,2021-08-20 13:28:01
"415","USGS","383053121355901","YOLO BWA A PUTAH C SINKS NR WEST SACRAMENTO CA","ST",38.51468056,-121.5998306,FALSE,2021-08-20 13:28:01
"416","USGS","11425500","SACRAMENTO R A VERONA CA","ST",38.77434584,-121.5982928,FALSE,2021-08-20 13:28:01
"417","USGS","11159000","PAJARO R A CHITTENDEN CA","ST",36.9002307,-121.5977215,FALSE,2021-08-20 13:28:01
"418","USGS","383309121354701","YOLO BYPASS 0.7 MI W OF TOE DR NR WEST SACRAMENTO","ST",38.5525,-121.5963889,FALSE,2021-08-20 13:28:01
"419","USGS","383405121353501","YOLO BWA 0.30 MI N OF GREENS LK NR WEST SACRAMENTO","ST",38.5679611,-121.5930306,FALSE,2021-08-20 13:28:01
"420","USGS","383234121353301","YOLO BWA OUTLET 0.2 MI W OF TOE DRAIN NR W SAC CA","ST",38.54277778,-121.5925,FALSE,2021-08-20 13:28:01
"421","USGS","380856121352901","GEORGIANA SLOUGH A THE OXBOW NR ISLETON CA","ST",38.14901944,-121.591525,FALSE,2021-08-20 13:28:01
"422","USGS","383257121352701","YOLO BWA 0.3 MI W OF TOE DRAIN NR W SACRAMENTO CA","ST",38.54916667,-121.5908333,FALSE,2021-08-20 13:28:01
"423","USGS","383308121352601","YOLO BWA INLET 0.4 MI W OF TOE DRAIN NR W SAC CA","ST",38.5522222,-121.5905556,FALSE,2021-08-20 13:28:01
"424","USGS","381038121352501","SACRAMENTO R A R MILE 19.0 NR ISLETON CA","ST",38.17715,-121.5902306,FALSE,2021-08-20 13:28:01
"425","USGS","382829121351801","TOE DRAIN NR BABEL SLOUGH NR FREEPORT CA","ST",38.47478056,-121.588225,FALSE,2021-08-20 13:28:01
"426","USGS","380932121351101","GEORGIANA SLOUGH BL TYLER ISLAND BR NR ISLETON CA","ST",38.15878056,-121.5862889,FALSE,2021-08-20 13:28:01
"427","USGS","365955121350601","UVAS C A MILLER AVE A GILROY CA","ST",36.9985333,-121.5849583,FALSE,2021-08-20 13:28:01
"428","USGS","11455095","SACRAMENTO R DEEP WATER SHIP CHANNEL NR FREEPORT","ST",38.47686944,-121.5836417,FALSE,2021-08-20 13:28:01
"429","USGS","380500121351901","SAN JOAQUIN R A SAN ANDREAS SHOAL NR TERMINOUS CA","ST",38.0986111,-121.5833556,FALSE,2021-08-20 13:28:01
"430","USGS","383308121350001","YOLO BWA TOE DRAIN NR W SACRAMENTO CA","ST",38.5522222,-121.5833333,FALSE,2021-08-20 13:28:01
"431","USGS","385607121345601","FEATHER R BL BEAR R NR NICOLAUS CA","ST",38.93517396,-121.5832947,FALSE,2021-08-20 13:28:01
"432","USGS","381738121345701","DELTA RMP SACR-025","ST",38.294,-121.5824389,FALSE,2021-08-20 13:28:01
"433","USGS","11313431","HOLLAND CUT NR BETHEL ISLAND CA","ST",38.01638889,-121.5819444,FALSE,2021-08-20 13:28:01
"434","USGS","375912121345301","OLD R A HOLLAND TRACT NR ORWOOD CA","ST",37.98669444,-121.581361,FALSE,2021-08-20 13:28:01
"435","USGS","380300121344801","OLD R A FRANKS TRACT NR BETHEL ISLAND CA","ST",38.05,-121.58,FALSE,2021-08-20 13:28:01
"436","USGS","380749121344701","GEORGIANA SLOUGH A TYLER ISLAND RD NR ISLETON CA","ST",38.13028056,-121.5797,FALSE,2021-08-20 13:28:01
"437","USGS","11447830","SUTTER SLOUGH A COURTLAND CA","ST",38.32916667,-121.5791667,FALSE,2021-08-20 13:28:01
"438","USGS","380412121344001","OLD R A WEBB TRACT NR TERMINOUS CA","ST",38.07010556,-121.5778389,FALSE,2021-08-20 13:28:01
"439","USGS","381852121343801","DELTA RMP SACR-009","ST",38.3143583,-121.5772333,FALSE,2021-08-20 13:28:01
"440","USGS","11421500","YUBA R A MARYSVILLE CA","ST",39.14203056,-121.57635,FALSE,2021-08-20 13:28:01
"441","USGS","380536121342901","SAN JOAQUIN R BL MOKELUMNE R NR TERMINOUS CA","ST",38.09333056,-121.5747,FALSE,2021-08-20 13:28:01
"442","USGS","381823121342901","SACRAMENTO R NR OXFORD CA","ST",38.30627778,-121.5746694,FALSE,2021-08-20 13:28:01
"443","USGS","375241121343701","OLD R NR DISCOVERY BAY CA","ST",37.88996389,-121.5733417,FALSE,2021-08-20 13:28:01
"444","USGS","11313405","OLD R A BACON ISLAND CA","ST",37.96992306,-121.572174,FALSE,2021-08-20 13:28:01
"445","USGS","11336930","MOKELUMNE R A ANDRUS ISLAND NR TERMINOUS CA","ST",38.1061111,-121.571111,FALSE,2021-08-20 13:28:01
"446","USGS","380433121341501","SAN JOAQUIN R A WEBB TRACT NR TERMINOUS CA","ST",38.0757,-121.5708889,FALSE,2021-08-20 13:28:01
"447","USGS","381756121340200","SACRAMENTO R NR COURTLAND CA","ST",38.29880187,-121.5682878,FALSE,2021-08-20 13:28:01
"448","USGS","11313325","OLD R A INDIAN SLOUGH CA","ST",37.914369,-121.5655064,FALSE,2021-08-20 13:28:01
"449","USGS","11313434","OLD R A QUIMBY ISLAND NR BETHEL ISLAND CA","ST",38.0272222,-121.5644444,FALSE,2021-08-20 13:28:01
"450","USGS","375627121333701","OLD RIVER A FAY ISLAND NR MIDDLE RIVER CA","ST",37.9408611,-121.56015,FALSE,2021-08-20 13:28:01
"451","USGS","380837121333401","N MOKELUMNE R A TYLER ISLAND RD NR ISELTON CA","ST",38.14366944,-121.5595389,FALSE,2021-08-20 13:28:01
"452","USGS","11313460","SAN JOAQUIN R A PRISONERS PT NR TERMINOUS CA","ST",38.05944444,-121.5572222,FALSE,2021-08-20 13:28:01
"453","USGS","381330121332401","DELTA RMP SACR-028","ST",38.22488056,-121.556725,FALSE,2021-08-20 13:28:01
"454","USGS","381703121331101","SACRAMENTO R A R MILE 30.5 NR VORDEN CA","ST",38.28423056,-121.5530694,FALSE,2021-08-20 13:28:01
"455","USGS","385714121330701","BEAR R NR BERRY RD NR E NICOLAUS CA","ST",38.95378444,-121.5530163,FALSE,2021-08-20 13:28:01
"456","USGS","11313250","OLD R A CLIFTON COURT FERRY CA","ST",37.82437145,-121.5524492,FALSE,2021-08-20 13:28:01
"457","USGS","11152300","SALINAS R NR CHUALAR CA","ST",36.55357267,-121.5493856,FALSE,2021-08-20 13:28:01
"458","USGS","11447810","SACRAMENTO R A GREENS LANDING CA","ST",38.345745,-121.5460657,FALSE,2021-08-20 13:28:01
"459","USGS","383052121324401","DELTA RMP SACR-011","ST",38.51454167,-121.5456278,FALSE,2021-08-20 13:28:01
"460","USGS","380325121322701","MANDEVILLE CUT NR TERMINOUS CA","ST",38.056975,-121.5407694,FALSE,2021-08-20 13:28:01
"461","USGS","380338121322001","SAN JOAQUIN R A MANDEVILLE ISLAND NR TERMINOUS CA","ST",38.06068056,-121.5389694,FALSE,2021-08-20 13:28:01
"462","USGS","11312676","MIDDLE R AT MIDDLE RIVER CA","ST",37.9427017,-121.5341175,FALSE,2021-08-20 13:28:01
"463","USGS","11447800","SACRAMENTO R A SNODGRASS SLOUGH NR HOOD CA","ST",38.34991158,-121.5327322,FALSE,2021-08-20 13:28:01
"464","USGS","375920121314801","MIDDLE R A MILDRED ISLAND NR ORWOOD CA","ST",37.99438889,-121.5294167,FALSE,2021-08-20 13:28:01
"465","USGS","11153650","LLAGAS C NR GILROY","ST",36.98744858,-121.5271622,FALSE,2021-08-20 13:28:01
"466","USGS","11421000","YUBA R NR MARYSVILLE CA","ST",39.1757251,-121.5249647,FALSE,2021-08-20 13:28:01
"467","USGS","382451121311701","DELTA RMP SACR-022","ST",38.41424167,-121.5214694,FALSE,2021-08-20 13:28:01
"468","USGS","382205121311300","SACRAMENTO R A HOOD CA","ST",38.3679666,-121.5213432,FALSE,2021-08-20 13:28:01
"469","USGS","11447540","SACRAMENTO R A PIER A WEST SACRAMENTO CA","ST",38.56831667,-121.5205694,FALSE,2021-08-20 13:28:01
"470","USGS","382825121311301","DELTA RMP SACR-007","ST",38.47371944,-121.5202667,FALSE,2021-08-20 13:28:01
"471","USGS","382605121310401","SACRAMENTO R A R MILE 44.0 CA","ST",38.43463129,-121.5188439,FALSE,2021-08-20 13:28:01
"472","USGS","380124121312501","MIDDLE R A COULUMBIA CUT NR TERMINOUS CA","ST",38.0169111,-121.5184778,FALSE,2021-08-20 13:28:01
"473","USGS","383340121310601","SACRAMENTO R A BARGE CANAL NR WEST SACRAMENTO CA","ST",38.5610611,-121.518461,FALSE,2021-08-20 13:28:01
"474","USGS","11447890","SACRAMENTO R AB DELTA CROSS CHANNEL CA","ST",38.25769218,-121.5182865,FALSE,2021-08-20 13:28:01
"475","USGS","11447903","GEORGIANA SLOUGH NR SACRAMENTO R","ST",38.2372222,-121.5175,FALSE,2021-08-20 13:28:01
"476","USGS","383225121304601","SACRAMENTO R A R MILE 55.8 NR SACRAMENTO CA","ST",38.5404,-121.5128806,FALSE,2021-08-20 13:28:01
"477","USGS","381210121312501","N MOKELUMNE R A TYLER ISLAND RD NR WALNUT GROVE CA","ST",38.20295556,-121.5121278,FALSE,2021-08-20 13:28:01
"478","USGS","11312685","MIDDLE R NR HOLT CA","ST",38.00305556,-121.5108333,FALSE,2021-08-20 13:28:01
"479","USGS","383430121302001","SACRAMENTO R AT TOWER BRIDGE AT SACRAMENTO CA","ST",38.58055556,-121.508611,FALSE,2021-08-20 13:28:01
"480","USGS","11336685","N MOKELUMNE NR WALNUT GROVE CA","ST",38.2233333,-121.5072222,FALSE,2021-08-20 13:28:01
"481","USGS","381542121302501","THE MEADOWS SLOUGH NR WALNUT GROVE CA","ST",38.26173056,-121.5069306,FALSE,2021-08-20 13:28:01
"482","USGS","11447500","SACRAMENTO R A SACRAMENTO CA","ST",38.5865717,-121.505511,FALSE,2021-08-20 13:28:01
"483","USGS","381508121302001","LOCKE SLOUGH A WALNUT GROVE CA","ST",38.25221944,-121.5054889,FALSE,2021-08-20 13:28:01
"484","USGS","380831121301301","S MOKELUMNE R A SYCAMORE SLOUGH NR TERMINOUS CA","ST",38.1419611,-121.5036889,FALSE,2021-08-20 13:28:01
"485","USGS","382740121301201","SACRAMENTO R A R MILE 46.4 A FREEPORT CA","ST",38.46111944,-121.5034694,FALSE,2021-08-20 13:28:01
"486","USGS","11447650","SACRAMENTO R A FREEPORT CA","ST",38.45601954,-121.5013437,FALSE,2021-08-20 13:28:01
"487","USGS","380336121300201","LITTLE CONNECTION SLOUGH NR TERMINOUS CA","ST",38.06,-121.5005833,FALSE,2021-08-20 13:28:01
"488","USGS","11336800","LITTLE POTATO SLOUGH NR TERMINOUS CA","ST",38.11436339,-121.4971742,FALSE,2021-08-20 13:28:01
"489","USGS","381254121294801","S MOKELUMNE R NR WALNUT GROVE CA","ST",38.22008889,-121.4970417,FALSE,2021-08-20 13:28:01
"490","USGS","380301121294500","SAN JOAQUIN R A VENICE ISLAND - TIDE GAGE CA","ST",38.0501987,-121.496896,FALSE,2021-08-20 13:28:01
"491","USGS","11336790","LITTLE POTATO SLOUGH A TERMINOUS CA","ST",38.09638889,-121.496111,FALSE,2021-08-20 13:28:01
"492","USGS","11169800","COYOTE C NR GILROY CA","ST",37.07772286,-121.4943832,FALSE,2021-08-20 13:28:01
"493","USGS","380131121280501","SAN JOAQUIN R A TINSLEY ISLAND NR TERMINOUS CA","ST",38.03908889,-121.4927778,FALSE,2021-08-20 13:28:01
"494","USGS","11336680","S MOKELUMNE R A NEW HOPE BR NR WALNUT GROVE CA","ST",38.22555556,-121.491111,FALSE,2021-08-20 13:28:01
"495","USGS","381346121292701","MOKELUMNE R A DEAD HORSE ISLAND NR WALNUT GROVE CA","ST",38.2293111,-121.490761,FALSE,2021-08-20 13:28:01
"496","USGS","11312674","MIDDLE R A BORDEN HWY NR TRACY CA","ST",37.89159208,-121.4899492,FALSE,2021-08-20 13:28:01
"497","USGS","380217121290301","DISAPPOINTMENT SLOUGH NR TERMINOUS CA","ST",38.03818056,-121.48415,FALSE,2021-08-20 13:28:01
"498","USGS","11447230","AMERICAN R A 16TH ST BR AT SACRAMENTO CA","ST",38.596016,-121.4760659,FALSE,2021-08-20 13:28:01
"499","USGS","380831121281201","SYCAMORE SLOUGH NR TERMINOUS CA","ST",38.142,-121.47,FALSE,2021-08-20 13:28:01
"500","USGS","11152200","SALINAS R NR GONZALES CA","ST",36.4866293,-121.4693817,FALSE,2021-08-20 13:28:01
"501","USGS","11311300","TURNER CUT NR HOLT CA","ST",37.9925,-121.4538889,FALSE,2021-08-20 13:28:01
"502","USGS","365634121264001","TEQUISQUITA SLOUGH A SHORE RD NR DUNNEVILLE CA","ST",36.9427,-121.4445,FALSE,2021-08-20 13:28:01
"503","USGS","11420800","YUBA R A DAQUERRA PT NR BROWNS VALLEY CA","ST",39.2082252,-121.4430187,FALSE,2021-08-20 13:28:01
"504","USGS","363608121255201","CHUALAR C A CHUALAR CANYON RD NR CHUALAR CA","ST",36.6022,-121.4309972,FALSE,2021-08-20 13:28:01
"505","USGS","11447000","AMERICAN R A SACRAMENTO CA","ST",38.5679613,-121.4232867,FALSE,2021-08-20 13:28:01
"506","USGS","383501121252000","AMERICAN R BL HOWE AVE STP CA","ST",38.58351649,-121.4232867,FALSE,2021-08-20 13:28:01
"507","USGS","383500121251700","AMERICAN R AB HOWE AVE STP CA","ST",38.5832387,-121.4224533,FALSE,2021-08-20 13:28:01
"508","USGS","375949121251001","FOURTEENMILE SLOUGH NR HOLT CA","ST",37.99703889,-121.4193194,FALSE,2021-08-20 13:28:01
"509","USGS","365736121250801","PACHECO C A SAN FELIPE RD NR DUNNEVILLE CA","ST",36.96,-121.4189972,FALSE,2021-08-20 13:28:01
"510","USGS","375944121252301","SAN JOAQUIN R A WINDMILL COVE RD NR HOLT CA","ST",37.99418056,-121.4143667,FALSE,2021-08-20 13:28:01
"511","USGS","11424000","BEAR R NR WHEATLAND CA","ST",39.0001727,-121.4066238,FALSE,2021-08-20 13:28:01
"512","USGS","380232121241801","FOURTEENMILE SLOUGH NR TERMINOUS CA","ST",38.04221944,-121.405,FALSE,2021-08-20 13:28:01
"513","USGS","391305121240001","BIG SEEP SECTION 27 IN YUBA GOLDFIELDS","ST",39.21805556,-121.4,FALSE,2021-08-20 13:28:01
"514","USGS","11447030","STRONG RANCH SLOUGH A SACRAMENTO CA","ST",38.60240499,-121.3955082,FALSE,2021-08-20 13:28:01
"515","USGS","11311150","STOCKTON SHIP CHANNEL A LIGHT 40 CA","ST",37.977701,-121.384393,FALSE,2021-08-20 13:28:01
"516","USGS","11447360","ARCADE C NR DEL PASO HEIGHTS CA","ST",38.64184848,-121.3827302,FALSE,2021-08-20 13:28:01
"517","USGS","375831121223701","SAN JOAQUIN R A BUCKLEY COVE NR STOCKTON CA","ST",37.97527778,-121.3769444,FALSE,2021-08-20 13:28:01
"518","USGS","383404121221600","AMERICAN R A WATERTON PARK NR CARMICHAEL CA","ST",38.5676837,-121.3721742,FALSE,2021-08-20 13:28:01
"519","USGS","375719121205401","SAN JOAQUIN R A ATHERTON ISLAND NR STOCKTON CA","ST",37.9553,-121.348211,FALSE,2021-08-20 13:28:01
"520","USGS","383438121204200","AMERICAN R BL ARDEN STP CA","ST",38.577128,-121.3460624,FALSE,2021-08-20 13:28:01
"521","USGS","375649121202101","SAN JOAQUIN R NR STOCKTON CA","ST",37.94686848,-121.3402249,FALSE,2021-08-20 13:28:01
"522","USGS","375706121201001","SAN JOAQUIN R AB MCCOY AVE NR STOCKTON CA","ST",37.95173889,-121.3361694,FALSE,2021-08-20 13:28:01
"523","USGS","383443121200500","AMERICAN R AB ARDEN STP CA","ST",38.5785169,-121.3357844,FALSE,2021-08-20 13:28:01
"524","USGS","375615121200501","SAN JOAQUIN R A NAVY DR NR STOCKTON CA","ST",37.9374611,-121.3348556,FALSE,2021-08-20 13:28:01
"525","USGS","383602121194000","AMERICAN R A UP GOETHE PARK CA","ST",38.6004608,-121.3288398,FALSE,2021-08-20 13:28:01
"526","USGS","11152000","ARROYO SECO NR SOLEDAD CA","ST",36.28052076,-121.3227063,FALSE,2021-08-20 13:28:01
"527","USGS","390256121190701","BEAR R BL CAMP FAR WEST RES NR WHEATLAND CA","ST",39.0487839,-121.319678,FALSE,2021-08-20 13:28:01
"528","USGS","11151700","SALINAS R A SOLEDAD CA","ST",36.411076,-121.3193738,FALSE,2021-08-20 13:28:01
"529","USGS","375709121190301","PORT OF STOCKTON NR STOCKTON CA","ST",37.9524,-121.3175,FALSE,2021-08-20 13:28:01
"530","USGS","383615121185100","AMERICAN R A RANCHO CORDOVA PARK CA","ST",38.60407186,-121.3152284,FALSE,2021-08-20 13:28:01
"531","USGS","11325500","MOKELUMNE R A WOODBRIDGE CA","ST",38.15852914,-121.3035592,FALSE,2021-08-20 13:28:01
"532","USGS","11157500","TRES PINOS C NR TRES PINOS CA","ST",36.76579177,-121.2996532,FALSE,2021-08-20 13:28:01
"533","USGS","374034121171100","JERUSALEM WASTE WAY (AT KASON RD) CA","ST",37.6760407,-121.2874408,FALSE,2021-08-20 13:28:01
"534","USGS","383714121170200","AMERICAN R NR UP ROSSMOR BAR CA","ST",38.6204604,-121.2849498,FALSE,2021-08-20 13:28:01
"535","USGS","390340121163601","ROCK C AB CAMP FAR WEST RES NR WHEATLAND CA","ST",39.0610063,-121.2777326,FALSE,2021-08-20 13:28:01
"536","USGS","11418000","YUBA R BL ENGLEBRIGHT DAM NR SMARTSVILLE CA","ST",39.23517079,-121.2741256,FALSE,2021-08-20 13:28:01
"537","USGS","11303500","SAN JOAQUIN R NR VERNALIS CA","ST",37.6760406,-121.2663293,FALSE,2021-08-20 13:28:01
"538","USGS","375252121145401","FRENCH CAMP SLOUGH A AIRPORT WAY NR STOCKTON CA","ST",37.8810366,-121.2493883,FALSE,2021-08-20 13:28:01
"539","USGS","11290500","SAN JOAQUIN R AT MAZE RD BRIDGE NR MODESTO CA","ST",37.63993006,-121.2293835,FALSE,2021-08-20 13:28:01
"540","USGS","11446500","AMERICAN R A FAIR OAKS CA","ST",38.6354601,-121.2277262,FALSE,2021-08-20 13:28:01
"541","USGS","373842121131800","HOSPITAL C A RIVER RD NR PATTERSON CA","ST",37.6104861,-121.2246606,FALSE,2021-08-20 13:28:01
"542","USGS","373747121125200","INGRAM C A RIVER RD NR PATTERSON CA","ST",37.60048626,-121.2246605,FALSE,2021-08-20 13:28:01
"543","USGS","11446400","AMERICAN R A NIMBUS DAM CA","ST",38.63601566,-121.2218927,FALSE,2021-08-20 13:28:01
"544","USGS","373701121121100","HOSPITAL C BLW CONFLUENCE OF INGRAM C NR GRAY CA","ST",37.6168749,-121.2041047,FALSE,2021-08-20 13:28:01
"545","USGS","11156500","SAN BENITO R NR WILLOW CREEK SCHOOL CA","ST",36.60940609,-121.2029797,FALSE,2021-08-20 13:28:01
"546","USGS","391726121115601","KENTUCKY RAVINE NR FRENCH CORRAL CA","ST",39.29055556,-121.1988889,FALSE,2021-08-20 13:28:01
"547","USGS","383816121115001","ALDER C A FOLSOM BLVD NR NIMBUS CA","ST",38.6376823,-121.198281,FALSE,2021-08-20 13:28:01
"548","USGS","11413700","YUBA R BL NEW COLGATE POWERPLANT NR FRENCH CORRAL","ST",39.3304474,-121.1938461,FALSE,2021-08-20 13:28:01
"549","USGS","383859121112601","WILLOW C A LK NATOMA NR FOLSOM CA","ST",38.64962644,-121.1916142,FALSE,2021-08-20 13:28:01
"550","USGS","391734121112501","S YUBA R A BRIDGEPORT CA","ST",39.29277778,-121.1902778,FALSE,2021-08-20 13:28:01
"551","USGS","391950121111401","M YUBA R AB COLGATE PH NR FRENCH CORRAL CA","ST",39.33055556,-121.1872222,FALSE,2021-08-20 13:28:01
"552","USGS","383859121110701","WILLOW C .1 MI US LK NATOMA NR FOLSOM CA","ST",38.64962645,-121.1863363,FALSE,2021-08-20 13:28:01
"553","USGS","375120121110300","LONE TREE C A AUSTIN RD NR MANTECA CA","ST",37.85548167,-121.1852197,FALSE,2021-08-20 13:28:01
"554","USGS","391744121105801","FRENCH CORRAL C NR BRIDGEPORT CA","ST",39.29555556,-121.1827778,FALSE,2021-08-20 13:28:01
"555","USGS","374209121103800","STANISLAUS R A CASWELL STATE PARK NR RIPON CA","ST",37.70242907,-121.1782722,FALSE,2021-08-20 13:28:01
"556","USGS","384057121103101","SACRAMENTO R A FOOTBRIDGE A FOLSOM CA","ST",38.6825,-121.1751944,FALSE,2021-08-20 13:28:01
"557","USGS","390107121102101","BEAR R BL WOLF C NR LUCAS HILL CA","ST",39.0185073,-121.1735613,FALSE,2021-08-20 13:28:01
"558","USGS","373204121101800","WESTLY WASTWAY A HWY 33 CA","ST",37.53437644,-121.1727138,FALSE,2021-08-20 13:28:01
"559","USGS","374200121101200","STANISLAUS R A KOETITZ RANCH CA","ST",37.6999291,-121.1710498,FALSE,2021-08-20 13:28:01
"560","USGS","11303300","STANISLAUS R A KOETITZ RANCH NR RIPON CA","ST",37.69937357,-121.1696609,FALSE,2021-08-20 13:28:01
"561","USGS","383927121100201","WILLOW C A SIBLEY RD NR FOLSOM CA","ST",38.65740404,-121.1682803,FALSE,2021-08-20 13:28:01
"562","USGS","373048121093000","DEL PUERTO C (AT HYW 33) CA","ST",37.51326576,-121.1593798,FALSE,2021-08-20 13:28:01
"563","USGS","383824121091601","ALDER C A PRAIRIE CITY RD NR FOLSOM CA","ST",38.6399045,-121.155502,FALSE,2021-08-20 13:28:01
"564","USGS","373324121090401","SAN JOAQUIN R A LAIRD PARK NR GRAYSON CA","ST",37.55659835,-121.1521581,FALSE,2021-08-20 13:28:01
"565","USGS","11274653","DEL PUERTO C AT VINEYARD ROAD NR PATTERSON","ST",37.52076567,-121.1496575,FALSE,2021-08-20 13:28:01
"566","USGS","384006121084601","WILLOW C A E BIDWELL ST NR FOLSOM CA","ST",38.6682371,-121.1471686,FALSE,2021-08-20 13:28:01
"567","USGS","383834121083801","UNNAMED TRIB TO ALDER C NR FOLSOM CA","ST",38.64268225,-121.1449463,FALSE,2021-08-20 13:28:01
"568","USGS","391440121080801","DEER C BL DEER C FALLS NR ROUGH AND READY CA","ST",39.24433799,-121.13662,FALSE,2021-08-20 13:28:01
"569","USGS","11290200","TUOLUMNE R A SHILOH RD BRIDGE NR GRAYSON CA","ST",37.60326424,-121.131325,FALSE,2021-08-20 13:28:01
"570","USGS","11274500","ORESTIMBA C NR NEWMAN CA","ST",37.31549247,-121.1252081,FALSE,2021-08-20 13:28:01
"571","USGS","392036121072901","SWEETLAND C AT SWEETLAND CA","ST",39.3433333,-121.1247222,FALSE,2021-08-20 13:28:01
"572","USGS","11151500","SAN LORENZO C A KING CITY CA","ST",36.20968825,-121.1190839,FALSE,2021-08-20 13:28:01
"573","USGS","373612121070000","TUOLOMNE R A SHILOH BRIDGE CA","ST",37.60326428,-121.1177137,FALSE,2021-08-20 13:28:01
"574","USGS","11142300","SAN SIMEON C NR CAMBRIA CA","ST",35.59969297,-121.1140822,FALSE,2021-08-20 13:28:01
"575","USGS","384030121063601","WILLOW C A GOLF LINKS DRIVE NR FOLSOM CA","ST",38.67490365,-121.1110566,FALSE,2021-08-20 13:28:01
"576","USGS","11303000","STANISLAUS R A RIPON CA","ST",37.72965078,-121.1104934,FALSE,2021-08-20 13:28:01
"577","USGS","11423150","WOLF C NR WOLF CA","ST",39.0507293,-121.1085595,FALSE,2021-08-20 13:28:01
"578","USGS","384730121061900","FOLSOM LK SAMPLE SITE NO 2 ON NF ARM CA","ST",38.79156746,-121.1063347,FALSE,2021-08-20 13:28:01
"579","USGS","11417500","S YUBA R A JONES BAR NR GRASS VALLEY CA","ST",39.2921153,-121.1046751,FALSE,2021-08-20 13:28:01
"580","USGS","353406121061100","SANTA ROSA C A WINDSOR BLVD NR CAMBRIA CA","ST",35.5683046,-121.1040814,FALSE,2021-08-20 13:28:01
"581","USGS","391922121060501","SHADY C NR NORTH SAN JUAN CA","ST",39.32277778,-121.1013889,FALSE,2021-08-20 13:28:01
"582","USGS","392256121055901","CLEAR C NR NORTH SAN JUAN CA","ST",39.3822222,-121.0997222,FALSE,2021-08-20 13:28:01
"583","USGS","384410121055100","FOLSOM LK SAMPLE SITE NO 1 ON SF ARM CA","ST",38.7360131,-121.0985564,FALSE,2021-08-20 13:28:01
"584","USGS","373232121053900","WESTPORT DRAIN NR MODESTO CA","ST",37.5421544,-121.0952121,FALSE,2021-08-20 13:28:01
"585","USGS","353339121053900","SANTA ROSA C A HWY 1 BR A CAMBRIA CA","ST",35.56080477,-121.0951919,FALSE,2021-08-20 13:28:01
"586","USGS","11148900","NACIMIENTO R BL SAPAQUE C NR BRYSON CA","ST",35.78857918,-121.0938048,FALSE,2021-08-20 13:28:01
"587","USGS","11410000","M YUBA R NR NORTH SAN JUAN CA","ST",39.3940587,-121.0849543,FALSE,2021-08-20 13:28:01
"588","USGS","391457121045401","DEER C NR GRASS VALLEY CA","ST",39.24916667,-121.0816667,FALSE,2021-08-20 13:28:01
"589","USGS","384449121044700","SF ARM FOLSOM LK NR FOLSOM CA","ST",38.7468462,-121.0807782,FALSE,2021-08-20 13:28:01
"590","USGS","11274570","SAN JOAQUIN R A PATTERSON BR NR PATTERSON CA","ST",37.4938221,-121.0804887,FALSE,2021-08-20 13:28:01
"591","USGS","353635121043101","SAN SIMEON C A PALMER FLATS NR CAMBRIA CA","ST",35.6096929,-121.0763025,FALSE,2021-08-20 13:28:01
"592","USGS","391231121041001","WOLF C A GRASS VALLEY CA","ST",39.2086111,-121.0694444,FALSE,2021-08-20 13:28:01
"593","USGS","11142240","PERRY C A CAMBRIA CA","ST",35.5652492,-121.0679684,FALSE,2021-08-20 13:28:01
"594","USGS","11151300","SAN LORENZO C BL BITTERWATER C NR KING CITY CA","ST",36.26802087,-121.066303,FALSE,2021-08-20 13:28:01
"595","USGS","390955121034101","WOLF C NR LA BARR MEADOWS CA","ST",39.16527778,-121.0613889,FALSE,2021-08-20 13:28:01
"596","USGS","390035121033201","BEAR R BL LK COMBIE DAM NR MEADOW VISTA CA","ST",39.01,-121.0603472,FALSE,2021-08-20 13:28:01
"597","USGS","372236121032400","ORESTIMBA C A HWY 33 CA","ST",37.3766027,-121.057708,FALSE,2021-08-20 13:28:01
"598","USGS","370716121032701","CALIFORNIA AQUEDUCT CHECK 12 AB ONEILL FOREBAY","ST",37.1211111,-121.0575,FALSE,2021-08-20 13:28:01
"599","USGS","11433800","NF AMERICAN R BL AUBURN DAMSITE NR AUBURN CA","ST",38.8721215,-121.056056,FALSE,2021-08-20 13:28:01
"600","USGS","391518121025801","DEER C A STOCKING FLAT NR NEVADA CITY CA","ST",39.255,-121.0494444,FALSE,2021-08-20 13:28:01
"601","USGS","391519121024701","DEER C NR NEVADA CITY CA","ST",39.25527778,-121.0463889,FALSE,2021-08-20 13:28:01
"602","USGS","11335000","COSUMNES R A MICHIGAN BAR CA","ST",38.50018619,-121.0452212,FALSE,2021-08-20 13:28:01
"603","USGS","391938121022901","S YUBA R AB PURDON CROSSING NR NEVADA CITY CA","ST",39.3272222,-121.0413889,FALSE,2021-08-20 13:28:01
"604","USGS","370655121020202","DELTA-MENDOTA CN A MCCABE RD NR ONEILL FOREBAY","ST",37.11527778,-121.0338889,FALSE,2021-08-20 13:28:01
"605","USGS","11274554","SPANISH GRANT COMBINED DRAIN NR PATTERSON CA","ST",37.43576816,-121.033542,FALSE,2021-08-20 13:28:01
"606","USGS","390016121015901","WOOLEY C A VAN GIESEN DR NR MEADOW VISTA CA","ST",39.0043972,-121.0333333,FALSE,2021-08-20 13:28:01
"607","USGS","391537121015701","DEER C 700 FT DS OF UNNAMED TRIB A NEVADA CITY CA","ST",39.26027778,-121.0325,FALSE,2021-08-20 13:28:01
"608","USGS","11274560","HARDING DRAIN A CARPENTER RD NR PATTERSON CA","ST",37.4643786,-121.0321537,FALSE,2021-08-20 13:28:01
"609","USGS","390132121015201","BEAR R A GRAVEL PIT RD NR APPLEGATE CA","ST",39.02548056,-121.0310528,FALSE,2021-08-20 13:28:01
"610","USGS","390722121013901","S WOLF C NR CHICAGO PARK CA","ST",39.12277778,-121.0275,FALSE,2021-08-20 13:28:01
"611","USGS","390219121012901","BEAR R AB LK COMBIE DAM NR MEADOW VISTA CA","ST",39.0386111,-121.0247222,FALSE,2021-08-20 13:28:01
"612","USGS","11427000","NF AMERICAN R A NORTH FORK DAM CA","ST",38.93600919,-121.023833,FALSE,2021-08-20 13:28:01
"613","USGS","11274538","ORESTIMBA CR AT RIVER RD NR CROWS LANDING CA","ST",37.41354657,-121.0160412,FALSE,2021-08-20 13:28:01
"614","USGS","370428121005601","CALIFORNIA AQUEDUCT CHECK 13 BL ONEILL FOREBAY","ST",37.07444444,-121.0155556,FALSE,2021-08-20 13:28:01
"615","USGS","11433500","MF AMERICAN R NR AUBURN CA","ST",38.917954,-121.0152215,FALSE,2021-08-20 13:28:01
"616","USGS","11274550","SAN JOAQUIN R NR CROWS LANDING CA","ST",37.43218889,-121.0133444,FALSE,2021-08-20 13:28:01
"617","USGS","371903120585400","NEWMAN WASTEWAY A HWY 33 NR GUSTINE CA","ST",37.29327166,-121.0121497,FALSE,2021-08-20 13:28:01
"618","USGS","374111121000301","STORM DRAIN INLET W SIDE WHITEHORSE AVE A MODESTO","ST",37.6865833,-121.0009722,FALSE,2021-08-20 13:28:01
"619","USGS","11433900","PAYMASTER C NR COOL CA","ST",38.89239899,-121.0004987,FALSE,2021-08-20 13:28:01
"620","USGS","11142200","SANTA ROSA C NR CAMBRIA CA","ST",35.5763603,-120.9982426,FALSE,2021-08-20 13:28:01
"621","USGS","371306120593000","GARZAS C NR HUNT AVE CA","ST",37.2182736,-120.9927028,FALSE,2021-08-20 13:28:01
"622","USGS","374115120591601","STORM DRAIN INLET S SIDE WENTWORTH LN A MODESTO CA","ST",37.68769444,-120.9879722,FALSE,2021-08-20 13:28:01
"623","USGS","373811120590001","DRY C A GALLO BRIDGE BL HWY 132 A MODESTO CA","ST",37.63631948,-120.9843779,FALSE,2021-08-20 13:28:01
"624","USGS","11290000","TUOLUMNE R A MODESTO CA","ST",37.627153,-120.9843777,FALSE,2021-08-20 13:28:01
"625","USGS","391949120585901","S YUBA R A EDWARDS CROSSING NR NEVADA CITY CA","ST",39.3301716,-120.9841154,FALSE,2021-08-20 13:28:01
"626","USGS","11433450","BROWNS BAR CANYON C NR COOL CA","ST",38.9143432,-120.9793866,FALSE,2021-08-20 13:28:01
"627","USGS","11274000","SAN JOAQUIN R NR NEWMAN CA","ST",37.3504928,-120.97715,FALSE,2021-08-20 13:28:01
"628","USGS","11433440","WILDCAT CANYON C NR COOL CA","ST",38.91962095,-120.970775,FALSE,2021-08-20 13:28:01
"629","USGS","391937120575301","BLUE HOLE LK A SAILOR FLAT MINE NR NEVADA CITY CA","ST",39.32683875,-120.9657812,FALSE,2021-08-20 13:28:01
"630","USGS","371636120575200","LOS BANOS C A HWY 140 CA","ST",37.27660579,-120.9654815,FALSE,2021-08-20 13:28:01
"631","USGS","11433430","BUCKEYE CANYON C TRIB NR GREENWOOD CA","ST",38.9215654,-120.9638303,FALSE,2021-08-20 13:28:01
"632","USGS","11273500","MERCED R A RIVER ROAD BRIDGE NR NEWMAN CA","ST",37.35104847,-120.9618719,FALSE,2021-08-20 13:28:01
"633","USGS","391006120573101","NW TRIB TO ROLLINS RES NR BEAR RIVER PINES CA","ST",39.16822909,-120.9596663,FALSE,2021-08-20 13:28:01
"634","USGS","11422500","BEAR R BL ROLLINS DAM NR COLFAX CA","ST",39.131285,-120.95911,FALSE,2021-08-20 13:28:01
"635","USGS","372006120571701","SAN JOAQUIN R US OF MERCED R NR HILLS FERRY CA","ST",37.3349378,-120.9557603,FALSE,2021-08-20 13:28:01
"636","USGS","374419120570701","STANISLAUS R A RIVERBANK CA","ST",37.7385395,-120.95299,FALSE,2021-08-20 13:28:01
"637","USGS","11408850","M YUBA R NR CAMPTONVILLE CA","ST",39.41683845,-120.9527274,FALSE,2021-08-20 13:28:01
"638","USGS","11433420","MAINE BAR CANYON C NR GREENWOOD CA","ST",38.9260099,-120.9485517,FALSE,2021-08-20 13:28:01
"639","USGS","11445500","SF AMERICAN R NR LOTUS CA","ST",38.81851188,-120.946885,FALSE,2021-08-20 13:28:01
"640","USGS","371730120563300","MUD SLOUGH A HWY 140 NR GUSTINE CA","ST",37.2916056,-120.9440924,FALSE,2021-08-20 13:28:01
"641","USGS","371444120563200","LOS BANOS C A SANTA FE GRADE CA","ST",37.2454956,-120.943258,FALSE,2021-08-20 13:28:01
"642","USGS","390753120563001","S TRIB TO ROLLINS RES NR COLFAX CA","ST",39.13128529,-120.9427204,FALSE,2021-08-20 13:28:01
"643","USGS","391119120562501","LITTLE GREENHORN C A GREENHORN C","ST",39.18850704,-120.9413325,FALSE,2021-08-20 13:28:01
"644","USGS","391116120562501","GREENHORN C A YOU BET RD BRDG NR NEVADA CITY CA","ST",39.1876737,-120.9413324,FALSE,2021-08-20 13:28:01
"645","USGS","390951120561401","POORMAN C AB ROLLINS RES A YOU BET RD NR COLFAX CA","ST",39.16406287,-120.9382763,FALSE,2021-08-20 13:28:01
"646","USGS","390815120560801","SE TRIB TO ROLLINS RES NR COLFAX CA","ST",39.13739646,-120.936609,FALSE,2021-08-20 13:28:01
"647","USGS","370620120560501","SAN LUIS WASTEWAY A INGOMAR RD CA","ST",37.10549905,-120.9357528,FALSE,2021-08-20 13:28:01
"648","USGS","11261500","SAN JOAQUIN R A FREMONT FORD BRIDGE CA","ST",37.3099386,-120.9310369,FALSE,2021-08-20 13:28:01
"649","USGS","11272500","MERCED R NR STEVINSON CA","ST",37.37077046,-120.9304826,FALSE,2021-08-20 13:28:01
"650","USGS","11426197","NF AMERICAN R AB SLAUGHTER RAVINE NR COLFAX CA","ST",39.1004525,-120.9252189,FALSE,2021-08-20 13:28:01
"651","USGS","392111120552501","MALAKOFF DIGGINGS LK CITY TNNL DISCH NR N BLMFLD","ST",39.35295065,-120.9246689,FALSE,2021-08-20 13:28:01
"652","USGS","392204120551601","MALAKOFF DIGGINGS HILLER TNNL DISCH N BLOOMFIELD","ST",39.3676728,-120.9221691,FALSE,2021-08-20 13:28:01
"653","USGS","392155120551601","MALAKOFF DIGGINGS FLOODED RED SHAFT NR N BLMFLD","ST",39.36517285,-120.922169,FALSE,2021-08-20 13:28:01
"654","USGS","392152120551401","MALAKOFF DIGGINGS FLD GREEN SHAFT DISCH NR BLMFLD","ST",39.3643395,-120.9216135,FALSE,2021-08-20 13:28:01
"655","USGS","373925120550701","DRY C A CLAUS RD BRIDGE A MODESTO CA","ST",37.6568748,-120.9196544,FALSE,2021-08-20 13:28:01
"656","USGS","391346120545101","POORE MINE C AB TUNNEL NR GRASS VALLEY CA","ST",39.22934059,-120.9152209,FALSE,2021-08-20 13:28:01
"657","USGS","391351120544901","POORE MINE GROUND SLUICE NR GRASS VALLEY CA","ST",39.23072948,-120.9146654,FALSE,2021-08-20 13:28:01
"658","USGS","391347120544301","POORE MINE TUNNEL EFFLUENT NR GRASS VALLEY CA","ST",39.2296184,-120.9129986,FALSE,2021-08-20 13:28:01
"659","USGS","391343120544201","POORE MINE C BL TUNNEL NR GRASS VALLEY CA","ST",39.2285073,-120.9127208,FALSE,2021-08-20 13:28:01
"660","USGS","391329120543801","GREENHORN C .2 MI BL THE NARROWS","ST",39.22461848,-120.9116095,FALSE,2021-08-20 13:28:01
"661","USGS","11262900","MUD SLOUGH NR GUSTINE CA","ST",37.26244,-120.9065908,FALSE,2021-08-20 13:28:01
"662","USGS","371354120541700","SANTA FE CN A GUN CLUB RD CA","ST",37.2316074,-120.9057565,FALSE,2021-08-20 13:28:01
"663","USGS","371352120541601","SANTE FE CN A GUN CLUB RD CA","ST",37.23105188,-120.9054787,FALSE,2021-08-20 13:28:01
"664","USGS","391437120541401","GAS CANYON C .05 MI AB GREENHORN C","ST",39.24350738,-120.9049429,FALSE,2021-08-20 13:28:01
"665","USGS","391417120541401","HUNTS HILL DRAIN .03 MI AB GREENHORN C","ST",39.23795187,-120.9049428,FALSE,2021-08-20 13:28:01
"666","USGS","391023120541301","BEAR R BL STEEPHOLLOW C NR CHICAGO PARK CA","ST",39.1729523,-120.9046637,FALSE,2021-08-20 13:28:01
"667","USGS","391351120541101","SF GREENHORN C BLW BOSTON MINE NR NEVADA CITY CA","ST",39.2307297,-120.9041093,FALSE,2021-08-20 13:28:01
"668","USGS","391434120541001","GREENHORN C .3 MI AB BUCKEYE FORD NR NEVADA CITY","ST",39.24267408,-120.9038318,FALSE,2021-08-20 13:28:01
"669","USGS","391416120540601","BUCKEYE FLAT MINE DRAIN .06 MI AB GREENHORN C","ST",39.23767414,-120.9027205,FALSE,2021-08-20 13:28:01
"670","USGS","391728120540101","UNNAMED TRIB TO DEER C A SCOTTS FLAT RES BL CASCI","ST",39.29100715,-120.9013329,FALSE,2021-08-20 13:28:01
"671","USGS","391259120535801","MISSOURI CYN C 1.2 MI AB GREENHORN C NR CHICAGO PK","ST",39.21628545,-120.9004978,FALSE,2021-08-20 13:28:01
"672","USGS","391731120535701","DEER C AB SCOTTS FLAT RES NR NEVADA CITY CA","ST",39.2918405,-120.9002217,FALSE,2021-08-20 13:28:01
"673","USGS","371353120535501","MUD SLOUGH A GUN CLUB RD CA","ST",37.2313297,-120.8996452,FALSE,2021-08-20 13:28:01
"674","USGS","391453120534801","BUCKEYE FLAT MINE UPPER DRAIN TO GREENHORN C","ST",39.24795196,-120.8977205,FALSE,2021-08-20 13:28:01
"675","USGS","372713120534901","TURLOCK RAINGAGE NR IDAHO RD NR TURLOCK CA","ST",37.4536111,-120.8969444,FALSE,2021-08-20 13:28:01
"676","USGS","391037120534401","STEEPHOLLOW C NR MOUTH NR CHICAGO PARK CA","ST",39.17694444,-120.8955556,FALSE,2021-08-20 13:28:01
"677","USGS","391415120533701","BUCKEYE FLAT MINE S DR TO SF GRNHRN C GRASS VALLEY","ST",39.24156325,-120.891609,FALSE,2021-08-20 13:28:01
"678","USGS","391038120532501","BEAR R AB GRVL PLNT AB STEEPHOLLOW C CHICAGO PARK","ST",39.1771192,-120.8913298,FALSE,2021-08-20 13:28:01
"679","USGS","391620120532201","SAILOR FLAT MINE MAIN DR GULCH 01 NR QUAKER HILL","ST",39.2721186,-120.8904986,FALSE,2021-08-20 13:28:01
"680","USGS","392025120532201","S YUBA R A MISSOURI BAR NR NEVADA CITY CA","ST",39.34027778,-120.8894444,FALSE,2021-08-20 13:28:01
"681","USGS","391615120531501","SAILOR FLAT MINE MAIN DR TO GREENHORN CR GULCH 03","ST",39.2707298,-120.888554,FALSE,2021-08-20 13:28:01
"682","USGS","391146120530601","STEEPHOLLOW C A LOWELL HILL BRDG NR NEVADA CITY CA","ST",39.1960081,-120.8860522,FALSE,2021-08-20 13:28:01
"683","USGS","391627120524901","TOM JERRY MINE DR A TUNNEL INLET NR NEVADA CITY CA","ST",39.27406328,-120.8813315,FALSE,2021-08-20 13:28:01
"684","USGS","391627120524801","TOM JERRY MINE DR A TUNNEL OUTLET NR NEVADA CITY","ST",39.27406328,-120.8810537,FALSE,2021-08-20 13:28:01
"685","USGS","391611120524701","SAILOR FLAT E TRIB A MOUTH TO GREENHORN C","ST",39.26961887,-120.8807758,FALSE,2021-08-20 13:28:01
"686","USGS","391446120534201","BUCKEYE FLAT MINE N DR TO GREENHORN C GRASS VALLEY","ST",39.24600794,-120.8793863,FALSE,2021-08-20 13:28:01
"687","USGS","371352120522801","SLD 2ND INFLOW TO KESTERSON RES CA","ST",37.23105215,-120.8754779,FALSE,2021-08-20 13:28:01
"688","USGS","371352120522601","SAN LUIS CN A GUN CLUB RD CA","ST",37.23105216,-120.8749223,FALSE,2021-08-20 13:28:01
"689","USGS","371306120520401","SLD 1ST INFLOW TO KESTERSON RES CA","ST",37.21827474,-120.8688106,FALSE,2021-08-20 13:28:01
"690","USGS","11150500","SALINAS R NR BRADLEY CA","ST",35.9302434,-120.8687915,FALSE,2021-08-20 13:28:01
"691","USGS","390455120510601","GLEESON DIGGINGS MAIN SLUICE CUT NR IOWA HILL CA","ST",39.08184267,-120.8527147,FALSE,2021-08-20 13:28:01
"692","USGS","11261100","SALT SLOUGH A HWY 165 NR STEVINSON CA","ST",37.24771864,-120.8521446,FALSE,2021-08-20 13:28:01
"693","USGS","392126120510201","RELIEF HILL DEEP BLUE TNNL OUTFLOW NR N BLOOMFIELD","ST",39.35711899,-120.85161,FALSE,2021-08-20 13:28:01
"694","USGS","11272000","MERCED R A MILLIKEN BRIDGE NR STEVINSON LA CA","ST",37.3621602,-120.8504803,FALSE,2021-08-20 13:28:01
"695","USGS","372206120504701","MERCED R A HAGAMAN CTY PARK NR IRWIN CA","ST",37.36827118,-120.8474248,FALSE,2021-08-20 13:28:01
"696","USGS","391754120504801","SF DEER C NR WASHINGTON CA","ST",39.2983333,-120.8466667,FALSE,2021-08-20 13:28:01
"697","USGS","11421790","BEAR R BL DUTCH FLAT AFTERBAY NR DUTCH FLAT CA","ST",39.21350886,-120.8452174,FALSE,2021-08-20 13:28:01
"698","USGS","11260815","SAN JOAQUIN R NR STEVINSON CA","ST",37.29513418,-120.8436176,FALSE,2021-08-20 13:28:01
"699","USGS","390945120562001","GOLD RUN TUNNEL OUTLET  NR COLFAX CA","ST",39.16239805,-120.8416049,FALSE,2021-08-20 13:28:01
"700","USGS","371636120494200","SAN JOAQUIN R AB BEAR C CA","ST",37.276607,-120.8293668,FALSE,2021-08-20 13:28:01
"701","USGS","391657120493101","GREENHORN C NR HEADWATERS NR SCOTTS FLAT RES","ST",39.2823978,-120.8263293,FALSE,2021-08-20 13:28:01
"702","USGS","391350120492501","STUMP CYN C NW NR DUTCH FLAT CA","ST",39.23045369,-120.8246613,FALSE,2021-08-20 13:28:01
"703","USGS","351755120492401","LOS OSOS C A HORSE RANCH","ST",35.2985859,-120.8243448,FALSE,2021-08-20 13:28:01
"704","USGS","391351120491601","STUMP CYN C NE NR DUTCH FLAT CA","ST",39.2307315,-120.8221612,FALSE,2021-08-20 13:28:01
"705","USGS","392119120484901","S YUBA R BL POORMAN C NR WASHINGTON CA","ST",39.35527778,-120.813611,FALSE,2021-08-20 13:28:01
"706","USGS","352127120484501","CHORRO C A CHORRO C RD NR MORRO BAY CA","ST",35.3575083,-120.8124639,FALSE,2021-08-20 13:28:01
"707","USGS","11408700","M YUBA R NR ALLEGHANY CA","ST",39.4385083,-120.8121657,FALSE,2021-08-20 13:28:01
"708","USGS","370936120483000","SALT SLOUGH A SAN LUIS RANCH CA","ST",37.1599433,-120.8093623,FALSE,2021-08-20 13:28:01
"709","USGS","372323120481700","HIGHLINE CN SPILL NR HILMAR CA","ST",37.38965984,-120.8057575,FALSE,2021-08-20 13:28:01
"710","USGS","11260800","BEAR C NR STEVINSON CA","ST",37.27160738,-120.8010327,FALSE,2021-08-20 13:28:01
"711","USGS","372349120475901","HIGHLINE CN NR DELHI CA","ST",37.39694444,-120.7997222,FALSE,2021-08-20 13:28:01
"712","USGS","392119120470201","SCOTCHMAN C BL FALLS NR WASHINGTON CA","ST",39.3551761,-120.7849402,FALSE,2021-08-20 13:28:01
"713","USGS","392116120470101","SCOTCHMAN C A THE FALLS NR WASHINGTON CA","ST",39.35434279,-120.7846624,FALSE,2021-08-20 13:28:01
"714","USGS","371317120464600","MARIPOSA BYPASS-SLOUGH CA","ST",37.221331,-120.780475,FALSE,2021-08-20 13:28:01
"715","USGS","392042120463401","SCOTCHMAN C AB OMEGA DR GULCH NR WASHINGTON CA","ST",39.34489858,-120.7771618,FALSE,2021-08-20 13:28:01
"716","USGS","392045120463301","OMEGA DR GULCH A SCOTCHMAN C NR WASHINGTON CA","ST",39.3457319,-120.776884,FALSE,2021-08-20 13:28:01
"717","USGS","11255600","LITTLE PANOCHE C TRIB NO 2 NR PANOCHE CA","ST",36.78744979,-120.7662938,FALSE,2021-08-20 13:28:01
"718","USGS","11426194","NF AMERICAN R NR DUTCH FLAT CA","ST",39.18489954,-120.7621572,FALSE,2021-08-20 13:28:01
"719","USGS","371025120453800","SAN JOAQUIN R AB MARIPOSA BYPASS CA","ST",37.1735545,-120.7615837,FALSE,2021-08-20 13:28:01
"720","USGS","392020120453701","OMEGA SOUTH TUNNEL NR WASHINGTON CA","ST",39.33878787,-120.7613276,FALSE,2021-08-20 13:28:01
"721","USGS","11433300","MF AMERICAN R NR FORESTHILL CA","ST",39.0060108,-120.7607633,FALSE,2021-08-20 13:28:01
"722","USGS","11154700","CLEAR C NR IDRIA CA","ST",36.36079387,-120.7607315,FALSE,2021-08-20 13:28:01
"723","USGS","392022120453301","OMEGA EAST SHAFT (TUNNEL VENT SHAFT) NR WASHINGTON","ST",39.33934345,-120.7602165,FALSE,2021-08-20 13:28:01
"724","USGS","392512120453201","ANCHO ERIE DRAINAGE A POORMAN C NR WASHINGTON CA","ST",39.41989854,-120.7599405,FALSE,2021-08-20 13:28:01
"725","USGS","392512120453101","ANCHO ERIE DRAINAGE A TAILINGS DAM NR WASHINGTON","ST",39.41989855,-120.7596627,FALSE,2021-08-20 13:28:01
"726","USGS","11289800","TUOLUMNE R A HICKMAN NR WATERFORD CA","ST",37.635487,-120.7549276,FALSE,2021-08-20 13:28:01
"727","USGS","371046120445900","SAN JOAQUIN R NR SALT SLOUGH TAKEOUT CA","ST",37.1793878,-120.7507503,FALSE,2021-08-20 13:28:01
"728","USGS","384634120445301","SF AMERICAN R A MOSQUITO RD NR PLACERVILLE CA","ST",38.7761111,-120.7480556,FALSE,2021-08-20 13:28:01
"729","USGS","370822120433500","SAN JOAQUIN R A TURNER ISLAND (ERRECA RD) CA","ST",37.1393887,-120.7274146,FALSE,2021-08-20 13:28:01
"730","USGS","372424120432800","LIVINGSTON CN A LVNGSTN TRMNT PLANT NR LVNGSTN CA","ST",37.40660436,-120.7254778,FALSE,2021-08-20 13:28:01
"731","USGS","374815120432201","STANISLAUS R A MILE 50 NR KNIGHTS FERRY CA","ST",37.80409439,-120.723818,FALSE,2021-08-20 13:28:01
"732","USGS","385957120432401","RUBICON R NR VOLCANOVILLE CA","ST",38.99916667,-120.7233333,FALSE,2021-08-20 13:28:01
"733","USGS","390120120431601","NF OF MF AMERICAN R NR MICHIGAN BLUFF CA","ST",39.0222222,-120.721111,FALSE,2021-08-20 13:28:01
"734","USGS","11319500","MOKELUMNE R NR MOKELUMNE HILL CA","ST",38.3126926,-120.7202112,FALSE,2021-08-20 13:28:01
"735","USGS","372450120423300","MERCED R A MCCONNELL STATE PARK NR LIVINGSTON CA","ST",37.41382645,-120.7101997,FALSE,2021-08-20 13:28:01
"736","USGS","372829120420801","MUSTANG C A NEWPORT RD NR BALLICO CA","ST",37.4746582,-120.7032563,FALSE,2021-08-20 13:28:01
"737","USGS","372839120413901","MUSTANG C A BIFURCATION STRUCTURE NR BALLICO CA","ST",37.4775,-120.6941667,FALSE,2021-08-20 13:28:01
"738","USGS","11147500","SALINAS R A PASO ROBLES CA","ST",35.6285813,-120.6843373,FALSE,2021-08-20 13:28:01
"739","USGS","351436120405201","SAN LUIS OBISPO C A LOS OSOS VLY RD NR SAN LUIS OB","ST",35.2433333,-120.681111,FALSE,2021-08-20 13:28:01
"740","USGS","351725120395901","STENNER C A MURRAY AVE A SAN LUIS OBISPO CA","ST",35.2904,-120.6663194,FALSE,2021-08-20 13:28:01
"741","USGS","352934120395501","ATASCADERO C A W MALL BR A ATASCADERO CA","ST",35.4928833,-120.6651639,FALSE,2021-08-20 13:28:01
"742","USGS","373012120393401","MUSTANG C BL RES NR OAKDALE RD NR MONTPELIER CA","ST",37.5025,-120.6577778,FALSE,2021-08-20 13:28:01
"743","USGS","391911120392201","S YUBA R AB LANGS CROSSING NR EMIGRANT GAP CA","ST",39.3197222,-120.656111,FALSE,2021-08-20 13:28:01
"744","USGS","371521120390800","BEAR C A BERT CRANE RD NR MERCED CA","ST",37.25577514,-120.65325,FALSE,2021-08-20 13:28:01
"745","USGS","373020120385201","MUSTANG C 1.1MI S OF MONTE VISTA AVE NR MONTPELIER","ST",37.50555556,-120.6477778,FALSE,2021-08-20 13:28:01
"746","USGS","373112120382901","MUSTANG C A MONTE VISTA AVE NR MONTPELIER CA","ST",37.52055556,-120.641111,FALSE,2021-08-20 13:28:01
"747","USGS","373115120382801","CULVERT DISCHARGE TO MUSTANG C A MONTE VISTA AVE","ST",37.5208333,-120.641111,FALSE,2021-08-20 13:28:01
"748","USGS","345727120375401","GREEN CYN C A MAIN ST NR GUADALUPE CA","ST",34.9574772,-120.6326722,FALSE,2021-08-20 13:28:01
"749","USGS","11442500","SF AMERICAN R BL SILVER C NR POLLOCK PINES CA","ST",38.79351424,-120.618261,FALSE,2021-08-20 13:28:01
"750","USGS","392122120364501","FORDYCE C AB LK SPAULDING NR EMIGRANT GAP CA","ST",39.3561111,-120.6125,FALSE,2021-08-20 13:28:01
"751","USGS","344725120363600","SAN ANTONIO C 1 MI E OF PACIFIC CA","ST",34.7902582,-120.6110038,FALSE,2021-08-20 13:28:01
"752","USGS","11271290","MERCED R A SHAFFER BRIDGE NR CRESSEY CA","ST",37.45410365,-120.6088084,FALSE,2021-08-20 13:28:01
"753","USGS","350059120351501","OSO FLACO C A OSO FLACO LK RD NR GUADALUPE CA","ST",35.01638889,-120.5875278,FALSE,2021-08-20 13:28:01
"754","USGS","350121120351301","UNNAMED TRIB TO OSO FLACO C NR GUADALUPE CA","ST",35.0225833,-120.5869722,FALSE,2021-08-20 13:28:01
"755","USGS","370635120350400","SAN JOAQUIN R A WASHINGTON RD BRIDGE CA","ST",37.1096669,-120.5854645,FALSE,2021-08-20 13:28:01
"756","USGS","373752120343801","TUOLUMNE R A TURLOCK LK STATE PK NR TURLOCK LK CA","ST",37.6310437,-120.5782547,FALSE,2021-08-20 13:28:01
"757","USGS","11141000","SANTA MARIA R A GUADALUPE","ST",34.9763661,-120.5718364,FALSE,2021-08-20 13:28:01
"758","USGS","345945120341301","OSO FLACO C A HWY 1 NR GUADALUPE CA","ST",34.99602778,-120.5704444,FALSE,2021-08-20 13:28:01
"759","USGS","11414000","S YUBA R NR CISCO CA","ST",39.3212909,-120.5643753,FALSE,2021-08-20 13:28:01
"760","USGS","344958120332901","SHUMAN C BL CASMALIA CA","ST",34.83275764,-120.5590574,FALSE,2021-08-20 13:28:01
"761","USGS","344047120331201","SANTA YNEZ R A RENWICK RD NR LOMPOC CA","ST",34.6797047,-120.5543342,FALSE,2021-08-20 13:28:01
"762","USGS","11135250","SANTA YNEZ R A 13TH ST BRIDGE A VAFB NR LOMPOC CA","ST",34.67661667,-120.5533889,FALSE,2021-08-20 13:28:01
"763","USGS","370318120325400","SAN JOAQUIN R A SANTA RITA HWY 152 BRIDGE CA","ST",37.0549456,-120.54935,FALSE,2021-08-20 13:28:01
"764","USGS","370515120321600","SAN JOAQUIN R BL DOS PALOS CA","ST",37.087445,-120.5387955,FALSE,2021-08-20 13:28:01
"765","USGS","11136100","SAN ANTONIO C NR CASMALIA CA","ST",34.78220307,-120.530167,FALSE,2021-08-20 13:28:01
"766","USGS","365027120313401","THIRD LIFT CA","ST",36.84078254,-120.5271201,FALSE,2021-08-20 13:28:01
"767","USGS","344303120313301","CREEK NR WETSU 12 CA","ST",34.7174819,-120.5268333,FALSE,2021-08-20 13:28:01
"768","USGS","345031120312801","SHUMAN C NR CASMALIA CA","ST",34.84192429,-120.5254449,FALSE,2021-08-20 13:28:01
"769","USGS","344109120312301","CREEK NR WETSU 14 CA","ST",34.68581573,-120.5240553,FALSE,2021-08-20 13:28:01
"770","USGS","11145000","SALINAS R AB PILITAS C NR SANTA MARGARITA CA","ST",35.3488625,-120.5126643,FALSE,2021-08-20 13:28:01
"771","USGS","11141600","LOS BERROS C NR NIPOMO CA","ST",35.08803198,-120.5098887,FALSE,2021-08-20 13:28:01
"772","USGS","365940120300000","SAN JOAQUIN R NR DOS PALOS GAGING STATION CA","ST",36.99439089,-120.5010129,FALSE,2021-08-20 13:28:01
"773","USGS","365912120300000","SAN JOAQUIN R AB POSO CN TAKEOUT TEMPLE SL CA","ST",36.98661325,-120.5010126,FALSE,2021-08-20 13:28:01
"774","USGS","11135180","SLOANS CYN C NR LOMPOC CA","ST",34.62887214,-120.5009986,FALSE,2021-08-20 13:28:01
"775","USGS","11141050","ORCUTT C NR ORCUTT CA","ST",34.88359037,-120.4948883,FALSE,2021-08-20 13:28:01
"776","USGS","11135000","SANTA YNEZ R A PINE CYN NR LOMPOC CA","ST",34.67220488,-120.492665,FALSE,2021-08-20 13:28:01
"777","USGS","11427500","MF AMERICAN R A FRENCH MEADOWS CA","ST",39.1096266,-120.4813127,FALSE,2021-08-20 13:28:01
"778","USGS","11141280","LOPEZ C NR ARROYO GRANDE CA","ST",35.23553035,-120.4723857,FALSE,2021-08-20 13:28:01
"779","USGS","11134800","MIGUELITO C A LOMPOC CA","ST",34.6316501,-120.4648857,FALSE,2021-08-20 13:28:01
"780","USGS","11271320","DRY C NR SNELLING CA","ST",37.55493506,-120.4632498,FALSE,2021-08-20 13:28:01
"781","USGS","11289660","TUOLUMNE R A LA GRANGE BRIDGE AT LA GRANGE CA","ST",37.66576548,-120.46214,FALSE,2021-08-20 13:28:01
"782","USGS","383403120272101","MF COSUMNES R NR PIPI VLY NR OMO RANCH CA","ST",38.5675,-120.4558333,FALSE,2021-08-20 13:28:01
"783","USGS","11141160","WITTENBERG C NR ARROYO GRANDE CA","ST",35.2171971,-120.4557184,FALSE,2021-08-20 13:28:01
"784","USGS","365130120265200","SAN JOAQUIN R A FIREBAUGH BRIDGE CA","ST",36.85828196,-120.4487848,FALSE,2021-08-20 13:28:01
"785","USGS","11298600","STANISLAUS R A PARROTTS FERRY BR NR COL CA","ST",38.04631159,-120.4485303,FALSE,2021-08-20 13:28:01
"786","USGS","365016120261300","FIREBAUGH WASTEWAY (HELM CN RD RD) CA","ST",36.8377267,-120.4379505,FALSE,2021-08-20 13:28:01
"787","USGS","350001120261101","NIPOMO C A HWY 101 BRIDGE CA","ST",35.00025507,-120.437386,FALSE,2021-08-20 13:28:01
"788","USGS","11141150","ARROYO GRANDE AB PHOENIX C NR ARROYO GRANDE CA","ST",35.18858618,-120.4351621,FALSE,2021-08-20 13:28:01
"789","USGS","11136050","SAN ANTONIO C AB BARKA SLOUGH CA","ST",34.7672035,-120.4337739,FALSE,2021-08-20 13:28:01
"790","USGS","11136040","HARRIS CANYON C NR ORCUTT CA","ST",34.77777778,-120.4316667,FALSE,2021-08-20 13:28:01
"791","USGS","11133500","SANTA YNEZ R NR LOMPOC CA","ST",34.6441501,-120.4309953,FALSE,2021-08-20 13:28:01
"792","USGS","11133000","SANTA YNEZ R A NARROWS NR LOMPOC CA","ST",34.63609474,-120.424606,FALSE,2021-08-20 13:28:01
"793","USGS","11132700","SALSIPUEDES C A SANTA ROSA RD NR LOMPOC CA","ST",34.62165057,-120.4221058,FALSE,2021-08-20 13:28:01
"794","USGS","11133600","CEBADA CYN C NR LOMPOC CA","ST",34.6647054,-120.4112723,FALSE,2021-08-20 13:28:01
"795","USGS","11132500","SALSIPUEDES C NR LOMPOC CA","ST",34.5885957,-120.4084938,FALSE,2021-08-20 13:28:01
"796","USGS","11143500","SALINAS R NR POZO CA","ST",35.29858465,-120.4037709,FALSE,2021-08-20 13:28:01
"797","USGS","344532120233401","SAN ANTONIO C A BRIDGE 51-06 CA","ST",34.75887038,-120.3937721,FALSE,2021-08-20 13:28:01
"798","USGS","364712120230400","DELTA-MENDOTA CN (BASS AVE) CA","ST",36.78661615,-120.3854473,FALSE,2021-08-20 13:28:01
"799","USGS","391515120225300","NF AMERICAN R BL SERENA C CA","ST",39.25407137,-120.3824236,FALSE,2021-08-20 13:28:01
"800","USGS","11254000","SAN JOAQUIN R NR MENDOTA CA","ST",36.8105046,-120.3782256,FALSE,2021-08-20 13:28:01
"801","USGS","373059120222201","MERCED R BL SNELLING DIV DAM NR SNELLING CA","ST",37.51632517,-120.3738017,FALSE,2021-08-20 13:28:01
"802","USGS","364718120221800","SAN JOAQUIN R BL MENDOTA POOL (BASS AVE) CA","ST",36.7882827,-120.3726692,FALSE,2021-08-20 13:28:01
"803","USGS","11137900","HUASNA R NR ARROYO GRANDE CA","ST",35.07775398,-120.3718267,FALSE,2021-08-20 13:28:01
"804","USGS","11131500","SANTA YNEZ R A COOPERS REEF NR LOMPOC CA","ST",34.61331786,-120.3573804,FALSE,2021-08-20 13:28:01
"805","USGS","364400120202600","FRESNO SLOUGH (HYW 180) CA","ST",36.7332832,-120.3415553,FALSE,2021-08-20 13:28:01
"806","USGS","11270900","MERCED R BL MERCED FALLS DAM NR SNELL CA","ST",37.5216029,-120.3324114,FALSE,2021-08-20 13:28:01
"807","USGS","11439500","SF AMERICAN R NR KYBURZ(RIVER ONLY) CA","ST",38.76351814,-120.3285276,FALSE,2021-08-20 13:28:01
"808","USGS","350119120191701","HUASNA RIV AB TWITCHEL DAM AND CUYAMA R CA","ST",35.02192137,-120.3223804,FALSE,2021-08-20 13:28:01
"809","USGS","11140000","SISQUOC R NR GAREY","ST",34.89386807,-120.3065463,FALSE,2021-08-20 13:28:01
"810","USGS","350118120181301","ALAMO C AB TWITCHEL DAM NR OLD GAGE STATION CA","ST",35.02164358,-120.3046018,FALSE,2021-08-20 13:28:01
"811","USGS","11138100","CUYAMA R BL TWITCHELL DAM CA","ST",34.9444227,-120.2926568,FALSE,2021-08-20 13:28:01
"812","USGS","11130800","SANTA ROSA C NR BUELLTON CA","ST",34.61859605,-120.2840435,FALSE,2021-08-20 13:28:01
"813","USGS","344445120165101","SAN ANTONIO C A SAINT JOSEPH ST A LOS ALAMOS CA","ST",34.74596667,-120.2809,FALSE,2021-08-20 13:28:01
"814","USGS","352254120164701","NAVAJO C BL MCGINNIS C CA","ST",35.38163859,-120.2807093,FALSE,2021-08-20 13:28:01
"815","USGS","392602120164500","SAGEHEN HILLS TRIB NR HOBART MILLS CA","ST",39.4337941,-120.2802026,FALSE,2021-08-20 13:28:01
"816","USGS","352134120163201","NAVAJO C AB EXPLORATORY AREA CA","ST",35.35941654,-120.2765425,FALSE,2021-08-20 13:28:01
"817","USGS","384526120162901","SILVER FORK OF AMERICAN R NR KYBURZ CA","ST",38.7572222,-120.2747222,FALSE,2021-08-20 13:28:01
"818","USGS","11135800","SAN ANTONIO C A LOS ALAMOS CA","ST",34.74331534,-120.2709888,FALSE,2021-08-20 13:28:01
"819","USGS","392558120152100","SAGEHEN CR AB CAMPGROUND NR HOBART MILLS CA","ST",39.4326833,-120.2568685,FALSE,2021-08-20 13:28:01
"820","USGS","392558120152000","PRE-CAMPGROUND TRIB NR HOBART MILLS CA","ST",39.4326833,-120.2565908,FALSE,2021-08-20 13:28:01
"821","USGS","11139500","TEPUSQUET C NR SISQUOC CA","ST",34.87247964,-120.2445989,FALSE,2021-08-20 13:28:01
